stop_id,stop_name,stop_lat,stop_lon,stop_code,stop_desc,zone_id,stop_url,location_type,parent_station,wheelchair_boarding,stop_direction,stop_timezone,vehicle_type,platform_code
16242135,Olsøya,63.672,10.211,,,2001,,,,,,,,
16242167,Hjørundhølen bru,63.695,10.276,,,2001,,,,,,,,
16242168,Alset vegdele,63.711,10.318,,,2001,,,,,,,,
16242169,Finnlibakken,63.729,10.368,,,2001,,,,,,,,
16242170,Bergmyran,63.755,10.439,,,2001,,,,,,,,
16245135,Olsøya,63.672,10.211,,,2001,,,,,,,,
16245167,Hjørundhølen bru,63.695,10.276,,,2001,,,,,,,,
16245168,Alset vegdele,63.711,10.318,,,2001,,,,,,,,
16245169,Finnlibakken,63.729,10.368,,,2001,,,,,,,,
16245170,Bergmyran,63.755,10.439,,,2001,,,,,,,,
17020018,Nordsida,64.017,11.495,,,3006,,,,,,,,
17020019,Søndre Egge,64.017,11.451,,,3006,,,,,,,,
17020021,Vist vegdele,63.968,11.417,,,3006,,,,,,,,
17020022,Ogndalsvegen,64.013,11.499,,,3006,,,,,,,,
17020023,Guldbergaunet,64.017,11.511,,,3006,,,,,,,,
17020024,Dampsaga,64.019,11.489,,,3006,,,,,,,,
17020025,Helgesvegen,64.028,11.546,,,3006,,,,,,,,
17020026,Ålberg,63.956,11.445,,,3006,,,,,,,,
17020027,Sparbu stasjon,63.919,11.429,,,3006,,,,,,,,
17020033,Leira,63.913,11.437,,,3006,,,,,,,,
17020037,Ytre Sørlia,63.992,11.459,,,3006,,,,,,,,
17020045,Statens hus øst,64.009,11.502,,,3006,,,,,,,,
17020091,Jakob Weidemanns gate,64.015,11.493,,,3006,,,,,,,,
17020092,Bilstad,63.931,11.622,,,3006,,,,,,,,
17020093,Steinkjer montessoriskole,64.014,11.478,,,3006,,,,,,,,
17020094,Midjo,64.020,11.534,,,3006,,,,,,,,
17020097,Statens hus vest,64.008,11.500,,,3006,,,,,,,,
17020098,Austad,63.921,11.610,,,3006,,,,,,,,
17020099,Langli sør,63.926,11.589,,,3006,,,,,,,,
17020100,Sjøbygda,63.911,11.369,,,3006,,,,,,,,
17020149,Blåbyen,64.020,11.455,,,3006,,,,,,,,
17020150,Figga terrasse,64.002,11.492,,,3006,,,,,,,,
17020151,Figga student,64.001,11.494,,,3006,,,,,,,,
17020152,Løstubben,63.999,11.489,,,3006,,,,,,,,
17020153,Lø,63.997,11.482,,,3006,,,,,,,,
17020154,Karjolvegen,63.997,11.473,,,3006,,,,,,,,
17020155,Sørlia barnehage,63.995,11.473,,,3006,,,,,,,,
17020156,Øvre Sørliveg,63.995,11.468,,,3006,,,,,,,,
17020157,Lønnem,63.945,11.389,,,3006,,,,,,,,
17020158,Reipa,63.969,11.502,,,3006,,,,,,,,
17020159,Rannem,63.984,11.498,,,3006,,,,,,,,
17020160,Mære skole,63.935,11.430,,,3006,,,,,,,,
17020161,Våset,63.913,11.384,,,3006,,,,,,,,
17020162,Hestvika,63.892,11.363,,,3006,,,,,,,,
17020164,Sparbu,63.919,11.432,,,3006,,,,,,,,
17020167,Storsteinbakken,63.943,11.603,,,3006,,,,,,,,
17020168,Gjellsås,63.952,11.610,,,3006,,,,,,,,
17020169,Sveås,63.972,11.533,,,3006,,,,,,,,
17020171,Ryan øst,63.961,11.590,,,3006,,,,,,,,
17020172,Aunet,63.966,11.612,,,3006,,,,,,,,
17020173,Rølikorsen,63.977,11.622,,,3006,,,,,,,,
17020174,Skeikorsen,64.026,11.634,,,3006,,,,,,,,
17020175,Røysing,64.029,11.667,,,3006,,,,,,,,
17020176,Ogndal skole,64.026,11.668,,,3006,,,,,,,,
17020177,Langfjord,64.027,11.821,,,3006,,,,,,,,
17020178,Tollstad,63.999,11.849,,,3006,,,,,,,,
17020179,Bodom,63.971,11.916,,,3006,,,,,,,,
17020181,Gaulstad,63.975,12.099,,,3006,,,,,,,,
17020182,Lægran,64.059,11.756,,,3006,,,,,,,,
17020183,Gosen,64.037,11.690,,,3006,,,,,,,,
17020184,Vegmo nord,63.920,11.593,,,3006,,,,,,,,
17020185,Semshaugen,63.916,11.557,,,3006,,,,,,,,
17020186,Hoset,63.911,11.604,,,3006,,,,,,,,
17020187,Strand,63.900,11.612,,,3006,,,,,,,,
17020188,Bremset,63.888,11.615,,,3006,,,,,,,,
17020189,Himmelbrua,63.936,11.419,,,3006,,,,,,,,
17020221,Langmyrstua,63.971,12.019,,,3006,,,,,,,,
17020223,Skillegrind snuplass,63.976,11.924,,,3006,,,,,,,,
17020247,Fjesme,63.968,11.670,,,3006,,,,,,,,
17020254,Byafossen skole,64.028,11.543,,,3006,,,,,,,,
17020283,Steinvika terrasse,64.012,11.456,,,3006,,,,,,,,
17020284,Lundsengvegen,64.020,11.449,,,3006,,,,,,,,
17020285,Granheim,63.916,11.391,,,3006,,,,,,,,
17020294,Binde skole,64.092,11.714,,,3006,,,,,,,,
17020316,Betania,63.924,11.456,,,3006,,,,,,,,
17020317,Nesset,63.877,11.600,,,3006,,,,,,,,
17020318,Kippe,64.057,11.754,,,3006,,,,,,,,
17020326,Dyrstad,63.896,11.521,,,3006,,,,,,,,
17020336,Solhaug,64.036,11.551,,,3006,,,,,,,,
17020337,Klepparvegen,64.035,11.550,,,3006,,,,,,,,
17020338,Helgesmark,64.031,11.548,,,3006,,,,,,,,
17020339,Klepp,64.035,11.546,,,3006,,,,,,,,
17020353,Campus Guldbergaunet,64.020,11.513,,,3006,,,,,,,,
17020400,Steinkjer stasjon,64.011,11.496,,,3006,,,,,,,,
17020402,Steinbrua,64.022,11.495,,,3006,,,,,,,,
17020405,Egge barneskole,64.028,11.484,,,3006,,,,,,,,
17020407,Egge ungdomsskole,64.032,11.483,,,3006,,,,,,,,
17020412,Byaenget,64.025,11.502,,,3006,,,,,,,,
17020416,Steinvika,64.013,11.452,,,3006,,,,,,,,
17020418,Lerkehaug,63.989,11.500,,,3006,,,,,,,,
17020419,Sørlia,63.995,11.466,,,3006,,,,,,,,
17020428,Fagerheim,64.020,11.543,,,3006,,,,,,,,
17020430,AMFI Steinkjer,64.010,11.491,,,3006,,,,,,,,
17020431,Nordsileiret,64.015,11.480,,,3006,,,,,,,,
17020432,Eggelia,64.023,11.483,,,3006,,,,,,,,
17020434,Brekka vegdele,63.944,11.419,,,3006,,,,,,,,
17020436,Lund,63.962,11.412,,,3006,,,,,,,,
17020438,Frøset,63.976,11.424,,,3006,,,,,,,,
17020439,Jevika,63.983,11.435,,,3006,,,,,,,,
17020442,Ålbergsmyra,63.947,11.439,,,3006,,,,,,,,
17020443,Oksur,63.977,11.454,,,3006,,,,,,,,
17020444,Kringla,63.960,11.447,,,3006,,,,,,,,
17020447,Vollan,63.894,11.434,,,3006,,,,,,,,
17020448,Rambergmyran,63.899,11.438,,,3006,,,,,,,,
17020452,Hamrem,63.923,11.432,,,3006,,,,,,,,
17020454,Mære,63.936,11.422,,,3006,,,,,,,,
17020455,Mære landbruksskole,63.936,11.391,,,3006,,,,,,,,
17020456,Smolan,63.896,11.421,,,3006,,,,,,,,
17020457,Granlia,64.088,11.522,,,3006,,,,,,,,
17020458,Haugåsen,64.111,11.573,,,3006,,,,,,,,
17020459,Flekstad,64.135,11.711,,,3006,,,,,,,,
17020460,Klingsundet,64.140,11.740,,,3006,,,,,,,,
17020461,Strømstad,64.159,11.774,,,3006,,,,,,,,
17020462,Braset,64.179,11.845,,,3006,,,,,,,,
17020463,Øksnes,64.178,11.866,,,3006,,,,,,,,
17020464,Kjerkolkorsen,64.184,11.895,,,3006,,,,,,,,
17020465,Saurskorsen,64.191,11.931,,,3006,,,,,,,,
17020466,Myran,64.193,11.943,,,3006,,,,,,,,
17020467,Borganvegen,64.186,11.863,,,3006,,,,,,,,
17020468,Kjerkol,64.182,11.917,,,3006,,,,,,,,
17020469,Heistad,63.937,11.490,,,3006,,,,,,,,
17020470,Dalem,63.923,11.491,,,3006,,,,,,,,
17020477,Rognan,63.909,11.521,,,3006,,,,,,,,
17020480,Vegmo sør,63.918,11.595,,,3006,,,,,,,,
17020486,Moen,63.939,11.600,,,3006,,,,,,,,
17020487,Langli nord,63.930,11.593,,,3006,,,,,,,,
17020490,Heimstad,63.959,11.604,,,3006,,,,,,,,
17020494,Bruem,63.999,11.599,,,3006,,,,,,,,
17020496,Vibekorsen,64.015,11.568,,,3006,,,,,,,,
17020499,Mæhlakorsen,64.029,11.649,,,3006,,,,,,,,
17020501,Brandsegg,64.008,11.675,,,3006,,,,,,,,
17020502,Årholt,64.000,11.648,,,3006,,,,,,,,
17020503,Susegg,63.990,11.672,,,3006,,,,,,,,
17020504,Øggeldalen,64.021,11.686,,,3006,,,,,,,,
17020505,Overein,64.020,11.718,,,3006,,,,,,,,
17020508,Støa,64.013,11.746,,,3006,,,,,,,,
17020509,Finstad,64.022,11.772,,,3006,,,,,,,,
17020510,Hollåsen,64.012,11.865,,,3006,,,,,,,,
17020511,Håmmåren,64.004,11.828,,,3006,,,,,,,,
17020513,Vålen skole,64.001,11.872,,,3006,,,,,,,,
17020515,Skillegrind,63.972,11.924,,,3006,,,,,,,,
17020516,Hyllbrua,63.993,11.864,,,3006,,,,,,,,
17020524,Byafossen,64.040,11.558,,,3006,,,,,,,,
17020525,Reinsvegen,64.039,11.548,,,3006,,,,,,,,
17020526,Trapnesset,64.046,11.586,,,3006,,,,,,,,
17020527,Fossem,64.052,11.601,,,3006,,,,,,,,
17020528,Valstad,64.051,11.606,,,3006,,,,,,,,
17020529,Fossem bru,64.051,11.610,,,3006,,,,,,,,
17020530,Aksnes,64.055,11.631,,,3006,,,,,,,,
17020532,Hundlo jernbaneundergang,64.065,11.608,,,3006,,,,,,,,
17020533,Naustvollen,64.083,11.642,,,3006,,,,,,,,
17020535,Stranda,64.059,11.639,,,3006,,,,,,,,
17020537,Elli vegdele,64.065,11.658,,,3006,,,,,,,,
17020538,Berg,64.073,11.667,,,3006,,,,,,,,
17020539,Forr,64.076,11.679,,,3006,,,,,,,,
17020540,Lein,64.080,11.696,,,3006,,,,,,,,
17020541,Reitan,64.079,11.694,,,3006,,,,,,,,
17020542,Klæbukorsen,64.082,11.702,,,3006,,,,,,,,
17020543,Binde,64.088,11.711,,,3006,,,,,,,,
17020545,Vesterhus,64.096,11.720,,,3006,,,,,,,,
17020547,Persgård,64.102,11.730,,,3006,,,,,,,,
17020548,Østgård,64.108,11.737,,,3006,,,,,,,,
17020549,Haugbotn,64.115,11.756,,,3006,,,,,,,,
17020550,Markstein,64.120,11.773,,,3006,,,,,,,,
17020551,Tiltnes,64.126,11.792,,,3006,,,,,,,,
17020553,Strandheim,64.131,11.815,,,3006,,,,,,,,
17020554,Tangen,64.136,11.836,,,3006,,,,,,,,
17020555,Brattåsen,64.137,11.845,,,3006,,,,,,,,
17020556,Grønnvika,64.137,11.876,,,3006,,,,,,,,
17020557,Strinda,64.134,11.891,,,3006,,,,,,,,
17020559,Valøy stasjon,64.134,11.912,,,3006,,,,,,,,
17020560,Valøy gård,64.139,11.925,,,3006,,,,,,,,
17020561,Bøla bru,64.146,11.945,,,3006,,,,,,,,
17020563,Strandvik vegdele,64.159,11.977,,,3006,,,,,,,,
17020564,Strandvik,64.162,11.988,,,3006,,,,,,,,
17020610,Sellisvingen,64.038,11.487,,,3006,,,,,,,,
17020611,Sneve,64.048,11.493,,,3006,,,,,,,,
17020612,Rungstad,64.057,11.491,,,3006,,,,,,,,
17020613,Asp,64.065,11.505,,,3006,,,,,,,,
17020614,Svenning,64.070,11.511,,,3006,,,,,,,,
17020616,Dyrstad,64.077,11.472,,,3006,,,,,,,,
17020617,Gulling,64.079,11.469,,,3006,,,,,,,,
17020619,Trøa,64.075,11.513,,,3006,,,,,,,,
17020620,Saursaunet,64.084,11.519,,,3006,,,,,,,,
17020621,Følling,64.104,11.540,,,3006,,,,,,,,
17020622,Sem skole,64.105,11.559,,,3006,,,,,,,,
17020624,Langhammer,64.117,11.585,,,3006,,,,,,,,
17020627,Fiveshaugen,64.121,11.600,,,3006,,,,,,,,
17020628,Lintrøhaugen,64.125,11.616,,,3006,,,,,,,,
17020629,Nord-Aunankorsen,64.130,11.659,,,3006,,,,,,,,
17020631,Nybo,64.131,11.687,,,3006,,,,,,,,
17020633,Haugan,64.134,11.702,,,3006,,,,,,,,
17020635,Kvamkorsen,64.139,11.730,,,3006,,,,,,,,
17020637,Grøtan,64.151,11.765,,,3006,,,,,,,,
17020640,Noem,64.167,11.807,,,3006,,,,,,,,
17020642,Nold,64.167,11.799,,,3006,,,,,,,,
17020643,Bruvelta,64.167,11.813,,,3006,,,,,,,,
17020644,Nødal,64.177,11.827,,,3006,,,,,,,,
17020649,Rygg,64.181,11.888,,,3006,,,,,,,,
17020651,Nylandet,64.186,11.913,,,3006,,,,,,,,
17020654,Hegge,64.199,11.990,,,3006,,,,,,,,
17020672,Lund,64.028,11.439,,,3006,,,,,,,,
17020673,Homnes,64.030,11.420,,,3006,,,,,,,,
17020674,Sjømark,64.030,11.411,,,3006,,,,,,,,
17020676,Hervik,64.032,11.377,,,3006,,,,,,,,
17020677,Moen,64.037,11.373,,,3006,,,,,,,,
17020679,Sætervika,64.027,11.246,,,3006,,,,,,,,
17020680,Hammer,64.029,11.260,,,3006,,,,,,,,
17020682,Brustu,64.040,11.363,,,3006,,,,,,,,
17020683,Viset,64.038,11.350,,,3006,,,,,,,,
17020684,Elnan,64.042,11.327,,,3006,,,,,,,,
17020686,Skevik,64.040,11.306,,,3006,,,,,,,,
17020689,Rennan,64.064,11.312,,,3006,,,,,,,,
17020692,Brækka,64.069,11.280,,,3006,,,,,,,,
17020693,Holmfet,64.066,11.268,,,3006,,,,,,,,
17020694,Thun vegdele,64.058,11.244,,,3006,,,,,,,,
17020695,Bartnes,64.057,11.243,,,3006,,,,,,,,
17020696,Granhus,64.052,11.239,,,3006,,,,,,,,
17020697,Rones nord,64.044,11.238,,,3006,,,,,,,,
17020698,Rones sør,64.040,11.239,,,3006,,,,,,,,
17020701,Utvik,64.086,11.330,,,3006,,,,,,,,
17020702,Benan,64.086,11.369,,,3006,,,,,,,,
17020703,Kvamseng,64.088,11.353,,,3006,,,,,,,,
17020704,Prestgårdsmarka,64.089,11.337,,,3006,,,,,,,,
17020705,Tekset,64.076,11.317,,,3006,,,,,,,,
17020715,Garberg,63.968,11.409,,,3006,,,,,,,,
17020716,Ulvin,63.967,11.380,,,3006,,,,,,,,
17020721,Braset,63.919,11.409,,,3006,,,,,,,,
17020722,Risholt,63.919,11.424,,,3006,,,,,,,,
17020725,Hægstadkorsen,63.896,11.406,,,3006,,,,,,,,
17020728,Sotberg,63.949,11.542,,,3006,,,,,,,,
17020729,Rokka,63.943,11.545,,,3006,,,,,,,,
17020730,Veiesdal,63.932,11.531,,,3006,,,,,,,,
17020731,Bergkorsen,63.911,11.550,,,3006,,,,,,,,
17020732,Deibakken,64.118,11.401,,,3006,,,,,,,,
17020733,Svarteskorsen,64.119,11.403,,,3006,,,,,,,,
17020734,Melgård,64.125,11.419,,,3006,,,,,,,,
17020735,Oppdal,64.133,11.462,,,3006,,,,,,,,
17020736,Gjønnum,64.141,11.500,,,3006,,,,,,,,
17020738,Laup,64.075,11.724,,,3006,,,,,,,,
17020739,Finstad,64.070,11.722,,,3006,,,,,,,,
17020740,Nordheim,64.064,11.747,,,3006,,,,,,,,
17020743,Hatlingsveiskorsen,64.094,11.748,,,3006,,,,,,,,
17020745,Smååsan,64.095,11.660,,,3006,,,,,,,,
17020746,Reitlo,64.100,11.652,,,3006,,,,,,,,
17020747,Vang,64.111,11.675,,,3006,,,,,,,,
17020748,Østvold,64.113,11.690,,,3006,,,,,,,,
17020749,Nyveiskorsen,64.117,11.727,,,3006,,,,,,,,
17020756,Knedal,64.132,11.642,,,3006,,,,,,,,
17020757,Haug,64.130,11.682,,,3006,,,,,,,,
17020759,Henning skole,63.960,11.611,,,3006,,,,,,,,
17020760,Råde,64.041,11.646,,,3006,,,,,,,,
17020762,Risberg,64.014,11.623,,,3006,,,,,,,,
17020765,Vibe,64.018,11.551,,,3006,,,,,,,,
17020766,Fergeland,64.017,11.535,,,3006,,,,,,,,
17020768,Bogen,64.012,11.463,,,3006,,,,,,,,
17020821,Eldavegen,64.119,11.315,,,3006,,,,,,,,
17020822,Slettvolvegen,64.102,11.436,,,3006,,,,,,,,
17020823,Røsegg,64.090,11.462,,,3006,,,,,,,,
17020824,Jådåren,64.096,11.446,,,3006,,,,,,,,
17020825,Klætt,64.097,11.434,,,3006,,,,,,,,
17020826,Korsenget,64.099,11.422,,,3006,,,,,,,,
17020827,Kvarving,64.097,11.400,,,3006,,,,,,,,
17020828,Østvik,64.095,11.387,,,3006,,,,,,,,
17020829,Tessem,64.089,11.395,,,3006,,,,,,,,
17020830,Beitstad,64.107,11.392,,,3006,,,,,,,,
17020831,Vellamelen,64.110,11.388,,,3006,,,,,,,,
17020832,Kråknesset,64.109,11.367,,,3006,,,,,,,,
17020833,Hjelnesset,64.116,11.320,,,3006,,,,,,,,
17020834,Bragstad,63.934,11.434,,,3006,,,,,,,,
17020835,Hafstadkorsen,63.973,11.506,,,3006,,,,,,,,
17020837,Libakken,63.942,11.433,,,3006,,,,,,,,
17020838,Lorvik,63.889,11.385,,,3006,,,,,,,,
17020839,Melland,64.135,11.293,,,3006,,,,,,,,
17020840,Prestgårdsskogen,63.939,11.434,,,3006,,,,,,,,
17020841,Rema Nordsida,64.019,11.493,,,3006,,,,,,,,
17020842,Ryggagrenda,63.970,11.540,,,3006,,,,,,,,
17020844,Sprova,64.121,11.319,,,3006,,,,,,,,
17020845,Tørring,64.142,11.283,,,3006,,,,,,,,
17020847,Vanebo,64.140,11.240,,,3006,,,,,,,,
17020848,Kvam skole,64.139,11.739,,,3006,,,,,,,,
17020849,Nordbygdvegen,64.175,11.790,,,3006,,,,,,,,
17020850,Bruveitakorsen,64.167,11.814,,,3006,,,,,,,,
17020851,Nedre-Grøtan,64.148,11.763,,,3006,,,,,,,,
17020852,Rein,64.050,11.579,,,3006,,,,,,,,
17020853,Valløyvegen,64.136,11.911,,,3006,,,,,,,,
17021018,Nordsida,64.016,11.495,,,3006,,,,,,,,
17021019,Søndre Egge,64.016,11.451,,,3006,,,,,,,,
17021021,Vist vegdele,63.969,11.417,,,3006,,,,,,,,
17021022,Ogndalsvegen,64.013,11.499,,,3006,,,,,,,,
17021023,Guldbergaunet,64.017,11.512,,,3006,,,,,,,,
17021024,Dampsaga,64.018,11.490,,,3006,,,,,,,,
17021025,Helgesvegen,64.027,11.544,,,3006,,,,,,,,
17021033,Leira,63.913,11.438,,,3006,,,,,,,,
17021037,Ytre Sørlia,63.992,11.458,,,3006,,,,,,,,
17021045,Statens hus øst,64.008,11.502,,,3006,,,,,,,,
17021091,Jakob Weidemanns gate,64.015,11.493,,,3006,,,,,,,,
17021092,Bilstad,63.931,11.622,,,3006,,,,,,,,
17021094,Midjo,64.020,11.533,,,3006,,,,,,,,
17021097,Statens hus vest,64.007,11.500,,,3006,,,,,,,,
17021098,Austad,63.921,11.610,,,3006,,,,,,,,
17021099,Langli sør,63.926,11.590,,,3006,,,,,,,,
17021150,Figga terrasse,64.002,11.491,,,3006,,,,,,,,
17021151,Figga student,64.001,11.494,,,3006,,,,,,,,
17021152,Løstubben,63.999,11.489,,,3006,,,,,,,,
17021153,Lø,63.997,11.482,,,3006,,,,,,,,
17021154,Karjolvegen,63.997,11.473,,,3006,,,,,,,,
17021155,Sørlia barnehage,63.995,11.474,,,3006,,,,,,,,
17021156,Øvre Sørliveg,63.995,11.468,,,3006,,,,,,,,
17021157,Lønnem,63.945,11.389,,,3006,,,,,,,,
17021158,Reipa,63.969,11.502,,,3006,,,,,,,,
17021159,Rannem,63.985,11.499,,,3006,,,,,,,,
17021164,Sparbu,63.918,11.433,,,3006,,,,,,,,
17021167,Storsteinbakken,63.943,11.603,,,3006,,,,,,,,
17021168,Gjellsås,63.952,11.611,,,3006,,,,,,,,
17021171,Ryan øst,63.961,11.590,,,3006,,,,,,,,
17021172,Aunet,63.966,11.612,,,3006,,,,,,,,
17021173,Rølikorsen,63.977,11.622,,,3006,,,,,,,,
17021174,Skeikorsen,64.026,11.634,,,3006,,,,,,,,
17021175,Røysing,64.028,11.667,,,3006,,,,,,,,
17021176,Ogndal skole,64.027,11.668,,,3006,,,,,,,,
17021177,Langfjord,64.027,11.820,,,3006,,,,,,,,
17021178,Tollstad,63.999,11.849,,,3006,,,,,,,,
17021179,Bodom,63.971,11.916,,,3006,,,,,,,,
17021181,Gaulstad,63.975,12.099,,,3006,,,,,,,,
17021182,Lægran,64.059,11.755,,,3006,,,,,,,,
17021184,Vegmo nord,63.920,11.593,,,3006,,,,,,,,
17021185,Semshaugen,63.915,11.557,,,3006,,,,,,,,
17021186,Hoset,63.911,11.604,,,3006,,,,,,,,
17021187,Strand,63.900,11.612,,,3006,,,,,,,,
17021188,Bremset,63.888,11.615,,,3006,,,,,,,,
17021221,Langmyrstua,63.971,12.018,,,3006,,,,,,,,
17021254,Byafossen skole,64.028,11.543,,,3006,,,,,,,,
17021255,Oppem,63.908,11.471,,,3006,,,,,,,,
17021283,Steinvika terrasse,64.012,11.456,,,3006,,,,,,,,
17021284,Lundsengvegen,64.020,11.449,,,3006,,,,,,,,
17021324,Reitanvegen,64.055,11.697,,,3006,,,,,,,,
17021353,Campus Guldbergaunet,64.020,11.513,,,3006,,,,,,,,
17021400,Steinkjer stasjon,64.012,11.495,,,3006,,,,,,,,
17021402,Steinbrua,64.022,11.495,,,3006,,,,,,,,
17021404,Vammen,64.026,11.480,,,3006,,,,,,,,
17021405,Egge barneskole,64.028,11.483,,,3006,,,,,,,,
17021407,Egge ungdomsskole,64.032,11.483,,,3006,,,,,,,,
17021412,Byaenget,64.025,11.502,,,3006,,,,,,,,
17021416,Steinvika,64.013,11.452,,,3006,,,,,,,,
17021419,Sørlia,63.995,11.465,,,3006,,,,,,,,
17021428,Fagerheim,64.020,11.543,,,3006,,,,,,,,
17021431,Nordsileiret,64.015,11.481,,,3006,,,,,,,,
17021436,Lund,63.963,11.412,,,3006,,,,,,,,
17021438,Frøset,63.976,11.424,,,3006,,,,,,,,
17021439,Jevika,63.983,11.436,,,3006,,,,,,,,
17021442,Ålbergsmyra,63.947,11.439,,,3006,,,,,,,,
17021443,Oksur,63.978,11.454,,,3006,,,,,,,,
17021444,Kringla,63.960,11.446,,,3006,,,,,,,,
17021447,Vollan,63.894,11.434,,,3006,,,,,,,,
17021448,Rambergmyran,63.899,11.438,,,3006,,,,,,,,
17021452,Hamrem,63.921,11.432,,,3006,,,,,,,,
17021454,Mære,63.936,11.422,,,3006,,,,,,,,
17021455,Mære landbruksskole,63.936,11.391,,,3006,,,,,,,,
17021457,Granlia,64.089,11.522,,,3006,,,,,,,,
17021458,Haugåsen,64.111,11.573,,,3006,,,,,,,,
17021459,Flekstad,64.135,11.713,,,3006,,,,,,,,
17021460,Klingsundet,64.139,11.736,,,3006,,,,,,,,
17021461,Strømstad,64.159,11.774,,,3006,,,,,,,,
17021462,Braset,64.180,11.852,,,3006,,,,,,,,
17021463,Øksnes,64.178,11.865,,,3006,,,,,,,,
17021464,Kjerkolkorsen,64.183,11.894,,,3006,,,,,,,,
17021465,Saurskorsen,64.191,11.929,,,3006,,,,,,,,
17021466,Myran,64.192,11.941,,,3006,,,,,,,,
17021467,Vestvika,64.098,11.382,,,3006,,,,,,,,
17021469,Heistad,63.937,11.491,,,3006,,,,,,,,
17021470,Dalem,63.923,11.492,,,3006,,,,,,,,
17021477,Rognan,63.909,11.521,,,3006,,,,,,,,
17021478,Seteråsen,63.907,11.505,,,3006,,,,,,,,
17021481,Lysheim,63.918,11.560,,,3006,,,,,,,,
17021486,Moen,63.939,11.600,,,3006,,,,,,,,
17021487,Langli nord,63.930,11.593,,,3006,,,,,,,,
17021490,Heimstad,63.959,11.605,,,3006,,,,,,,,
17021496,Vibekorsen,64.015,11.568,,,3006,,,,,,,,
17021499,Mæhlakorsen,64.029,11.650,,,3006,,,,,,,,
17021502,Årholt,64.000,11.648,,,3006,,,,,,,,
17021503,Susegg,63.990,11.672,,,3006,,,,,,,,
17021504,Øggeldalen,64.022,11.686,,,3006,,,,,,,,
17021505,Overein,64.020,11.718,,,3006,,,,,,,,
17021508,Støa,64.013,11.746,,,3006,,,,,,,,
17021509,Finstad,64.023,11.772,,,3006,,,,,,,,
17021510,Hollåsen,64.012,11.865,,,3006,,,,,,,,
17021511,Håmmåren,64.005,11.827,,,3006,,,,,,,,
17021513,Vålen skole,64.002,11.873,,,3006,,,,,,,,
17021515,Skillegrind,63.972,11.924,,,3006,,,,,,,,
17021516,Hyllbrua,63.993,11.864,,,3006,,,,,,,,
17021524,Byafossen,64.040,11.558,,,3006,,,,,,,,
17021525,Reinsvegen,64.039,11.547,,,3006,,,,,,,,
17021526,Trapnesset,64.046,11.586,,,3006,,,,,,,,
17021527,Fossem,64.052,11.600,,,3006,,,,,,,,
17021528,Valstad,64.051,11.606,,,3006,,,,,,,,
17021529,Fossem bru,64.051,11.610,,,3006,,,,,,,,
17021530,Aksnes,64.055,11.631,,,3006,,,,,,,,
17021532,Hundlo jernbaneundergang,64.065,11.608,,,3006,,,,,,,,
17021533,Naustvollen,64.083,11.642,,,3006,,,,,,,,
17021535,Stranda,64.059,11.640,,,3006,,,,,,,,
17021537,Elli vegdele,64.065,11.658,,,3006,,,,,,,,
17021538,Berg,64.073,11.666,,,3006,,,,,,,,
17021539,Forr,64.076,11.679,,,3006,,,,,,,,
17021540,Lein,64.080,11.696,,,3006,,,,,,,,
17021541,Reitan,64.079,11.693,,,3006,,,,,,,,
17021542,Klæbukorsen,64.082,11.702,,,3006,,,,,,,,
17021543,Binde,64.088,11.711,,,3006,,,,,,,,
17021545,Vesterhus,64.096,11.720,,,3006,,,,,,,,
17021548,Østgård,64.108,11.737,,,3006,,,,,,,,
17021549,Haugbotn,64.115,11.756,,,3006,,,,,,,,
17021550,Markstein,64.121,11.773,,,3006,,,,,,,,
17021551,Tiltnes,64.126,11.792,,,3006,,,,,,,,
17021553,Strandheim,64.131,11.814,,,3006,,,,,,,,
17021554,Tangen,64.136,11.836,,,3006,,,,,,,,
17021555,Brattåsen,64.137,11.845,,,3006,,,,,,,,
17021556,Grønnvika,64.137,11.876,,,3006,,,,,,,,
17021557,Strinda,64.135,11.891,,,3006,,,,,,,,
17021559,Valøy stasjon,64.134,11.912,,,3006,,,,,,,,
17021560,Valøy gård,64.139,11.925,,,3006,,,,,,,,
17021561,Bøla bru,64.146,11.945,,,3006,,,,,,,,
17021563,Strandvik vegdele,64.159,11.976,,,3006,,,,,,,,
17021564,Strandvik,64.162,11.988,,,3006,,,,,,,,
17021611,Sneve,64.047,11.492,,,3006,,,,,,,,
17021612,Rungstad,64.058,11.491,,,3006,,,,,,,,
17021613,Asp,64.064,11.505,,,3006,,,,,,,,
17021614,Svenning,64.071,11.510,,,3006,,,,,,,,
17021616,Dyrstad,64.077,11.472,,,3006,,,,,,,,
17021617,Gulling,64.079,11.469,,,3006,,,,,,,,
17021619,Trøa,64.075,11.513,,,3006,,,,,,,,
17021620,Saursaunet,64.084,11.519,,,3006,,,,,,,,
17021621,Følling,64.105,11.542,,,3006,,,,,,,,
17021622,Sem skole,64.105,11.558,,,3006,,,,,,,,
17021624,Langhammer,64.117,11.584,,,3006,,,,,,,,
17021627,Fiveshaugen,64.121,11.600,,,3006,,,,,,,,
17021628,Lintrøhaugen,64.125,11.616,,,3006,,,,,,,,
17021629,Nord-Aunankorsen,64.130,11.659,,,3006,,,,,,,,
17021631,Nybo,64.131,11.687,,,3006,,,,,,,,
17021633,Haugan,64.134,11.701,,,3006,,,,,,,,
17021635,Kvamkorsen,64.139,11.730,,,3006,,,,,,,,
17021637,Grøtan,64.151,11.765,,,3006,,,,,,,,
17021640,Noem,64.167,11.807,,,3006,,,,,,,,
17021642,Nold,64.167,11.799,,,3006,,,,,,,,
17021643,Bruvelta,64.167,11.813,,,3006,,,,,,,,
17021644,Nødal,64.177,11.827,,,3006,,,,,,,,
17021649,Rygg,64.181,11.888,,,3006,,,,,,,,
17021651,Nylandet,64.186,11.913,,,3006,,,,,,,,
17021654,Hegge,64.199,11.990,,,3006,,,,,,,,
17021672,Lund,64.028,11.439,,,3006,,,,,,,,
17021673,Homnes,64.030,11.420,,,3006,,,,,,,,
17021674,Sjømark,64.029,11.410,,,3006,,,,,,,,
17021676,Hervik,64.031,11.377,,,3006,,,,,,,,
17021677,Moen,64.037,11.373,,,3006,,,,,,,,
17021682,Brustu,64.039,11.363,,,3006,,,,,,,,
17021683,Viset,64.038,11.350,,,3006,,,,,,,,
17021684,Elnan,64.041,11.328,,,3006,,,,,,,,
17021686,Skevik,64.040,11.306,,,3006,,,,,,,,
17021687,Lia,64.051,11.307,,,3006,,,,,,,,
17021688,Sandaunet,64.060,11.312,,,3006,,,,,,,,
17021689,Rennan,64.064,11.312,,,3006,,,,,,,,
17021692,Brækka,64.069,11.280,,,3006,,,,,,,,
17021693,Holmfet,64.067,11.269,,,3006,,,,,,,,
17021694,Thun vegdele,64.058,11.244,,,3006,,,,,,,,
17021695,Bartnes,64.057,11.243,,,3006,,,,,,,,
17021701,Utvik,64.086,11.330,,,3006,,,,,,,,
17021705,Tekset,64.076,11.317,,,3006,,,,,,,,
17021706,Mørkvedvegen,64.081,11.356,,,3006,,,,,,,,
17021717,Lånkan,63.956,11.425,,,3006,,,,,,,,
17021718,Brekka,63.958,11.435,,,3006,,,,,,,,
17021723,Ystgården,63.910,11.453,,,3006,,,,,,,,
17021728,Sotberg,63.949,11.542,,,3006,,,,,,,,
17021729,Rokka,63.943,11.545,,,3006,,,,,,,,
17021730,Veiesdal,63.932,11.532,,,3006,,,,,,,,
17021731,Bergkorsen,63.911,11.550,,,3006,,,,,,,,
17021732,Deibakken,64.118,11.401,,,3006,,,,,,,,
17021733,Svarteskorsen,64.119,11.403,,,3006,,,,,,,,
17021734,Melgård,64.126,11.419,,,3006,,,,,,,,
17021735,Oppdal,64.133,11.462,,,3006,,,,,,,,
17021736,Gjønnum,64.141,11.499,,,3006,,,,,,,,
17021738,Laup,64.075,11.724,,,3006,,,,,,,,
17021739,Finstad,64.070,11.722,,,3006,,,,,,,,
17021740,Nordheim,64.064,11.747,,,3006,,,,,,,,
17021743,Hatlingsveiskorsen,64.095,11.748,,,3006,,,,,,,,
17021745,Smååsan,64.095,11.660,,,3006,,,,,,,,
17021746,Reitlo,64.100,11.652,,,3006,,,,,,,,
17021747,Vang,64.111,11.675,,,3006,,,,,,,,
17021748,Østvold,64.113,11.690,,,3006,,,,,,,,
17021749,Nyveiskorsen,64.117,11.727,,,3006,,,,,,,,
17021756,Knedal,64.132,11.645,,,3006,,,,,,,,
17021757,Haug,64.130,11.681,,,3006,,,,,,,,
17021760,Råde,64.041,11.645,,,3006,,,,,,,,
17021764,Fossli,64.005,11.564,,,3006,,,,,,,,
17021765,Vibe,64.018,11.551,,,3006,,,,,,,,
17021766,Fergeland,64.018,11.535,,,3006,,,,,,,,
17021768,Bogen,64.013,11.463,,,3006,,,,,,,,
17021823,Røsegg,64.090,11.462,,,3006,,,,,,,,
17021824,Jådåren,64.096,11.447,,,3006,,,,,,,,
17021825,Klætt,64.097,11.433,,,3006,,,,,,,,
17021826,Korsenget,64.099,11.422,,,3006,,,,,,,,
17021827,Kvarving,64.097,11.402,,,3006,,,,,,,,
17021828,Østvik,64.095,11.384,,,3006,,,,,,,,
17021829,Tessem,64.089,11.395,,,3006,,,,,,,,
17021830,Beitstad,64.107,11.392,,,3006,,,,,,,,
17021831,Vellamelen,64.110,11.388,,,3006,,,,,,,,
17021832,Kråknesset,64.109,11.367,,,3006,,,,,,,,
17021833,Hjelnesset,64.116,11.320,,,3006,,,,,,,,
17021834,Bragstad,63.935,11.434,,,3006,,,,,,,,
17021835,Hafstadkorsen,63.973,11.506,,,3006,,,,,,,,
17021837,Libakken,63.942,11.433,,,3006,,,,,,,,
17021839,Melland,64.134,11.293,,,3006,,,,,,,,
17021840,Prestgårdsskogen,63.939,11.433,,,3006,,,,,,,,
17021842,Ryggagrenda,63.970,11.540,,,3006,,,,,,,,
17021844,Sprova,64.121,11.319,,,3006,,,,,,,,
17021845,Tørring,64.142,11.282,,,3006,,,,,,,,
17021846,Beistad skole,64.110,11.388,,,3006,,,,,,,,
17022024,Dampsaga,64.018,11.491,,,3006,,,,,,,,
17022428,Fagerheim,64.021,11.542,,,3006,,,,,,,,
17022469,Heistad,63.937,11.491,,,3006,,,,,,,,
17022481,Lysheim,63.918,11.560,,,3006,,,,,,,,
17022501,Brandsegg,64.008,11.675,,,3006,,,,,,,,
17022524,Byafossen,64.040,11.558,,,3006,,,,,,,,
17022548,Østgård,64.108,11.737,,,3006,,,,,,,,
17022705,Tekset,64.076,11.317,,,3006,,,,,,,,
17022771,Hatlinghus,64.150,11.549,,,3006,,,,,,,,
17023024,Dampsaga,64.019,11.488,,,3006,,,,,,,,
17030061,Varpnes vegdele,64.493,11.469,,,4001,,,,,,,,
17030067,Lauvhammer,64.458,11.548,,,4001,,,,,,,,
17030068,Industrivegen,64.455,11.543,,,4001,,,,,,,,
17030069,Spillumstranda,64.451,11.535,,,4001,,,,,,,,
17030070,Spillum vegdele,64.439,11.512,,,4001,,,,,,,,
17030071,Storvikmyra,64.435,11.502,,,4001,,,,,,,,
17030072,Bogna bru nordre,64.389,11.400,,,4001,,,,,,,,
17030074,Bogna bru søndre,64.385,11.399,,,4001,,,,,,,,
17030076,Lilleenget,64.479,11.537,,,4001,,,,,,,,
17030077,Rådyrvegen,64.482,11.542,,,4001,,,,,,,,
17030078,Skoglyvegen,64.474,11.536,,,4001,,,,,,,,
17030079,Vestre,64.469,11.483,,,4001,,,,,,,,
17030080,Vestbyen skole,64.470,11.475,,,4001,,,,,,,,
17030083,Namsoshallen,64.471,11.533,,,4001,,,,,,,,
17030085,Grav,64.396,11.404,,,4001,,,,,,,,
17030086,Sommarhus,64.593,11.687,,,4001,,,,,,,,
17030088,Alfheim,64.505,11.578,,,4001,,,,,,,,
17030166,Breistranda,64.536,11.308,,,4001,,,,,,,,
17030170,Altesjøen,64.587,11.223,,,4001,,,,,,,,
17030173,Høknes ungdomsskole,64.470,11.521,,,4001,,,,,,,,
17030174,Namsos ungdomsskole,64.470,11.511,,,4001,,,,,,,,
17030175,Otterøy skole,64.540,11.266,,,4001,,,,,,,,
17030176,Vasslia,64.632,11.095,,,4001,,,,,,,,
17030181,Lauvhammerhaugen,64.459,11.550,,,4001,,,,,,,,
17030182,Furnes,64.462,11.560,,,4001,,,,,,,,
17030183,Vik,64.465,11.588,,,4001,,,,,,,,
17030184,Buret,64.444,11.515,,,4001,,,,,,,,
17030185,Svea,64.440,11.512,,,4001,,,,,,,,
17030186,Mastin,64.418,11.489,,,4001,,,,,,,,
17030187,Vibstad,64.394,11.505,,,4001,,,,,,,,
17030188,Myrset,64.386,11.514,,,4001,,,,,,,,
17030189,Webster,64.381,11.522,,,4001,,,,,,,,
17030190,Solbakken,64.376,11.522,,,4001,,,,,,,,
17030191,Stendal,64.357,11.528,,,4001,,,,,,,,
17030192,Myra,64.352,11.536,,,4001,,,,,,,,
17030193,Nesjan,64.349,11.538,,,4001,,,,,,,,
17030194,Berre,64.344,11.541,,,4001,,,,,,,,
17030195,Fjell,64.342,11.543,,,4001,,,,,,,,
17030196,Romstad,64.340,11.547,,,4001,,,,,,,,
17030197,Finstad,64.338,11.548,,,4001,,,,,,,,
17030198,Skog snuplass,64.337,11.549,,,4001,,,,,,,,
17030199,Selnes,64.427,11.420,,,4001,,,,,,,,
17030201,Hamarsøy vegdele,64.546,11.538,,,4001,,,,,,,,
17030204,Alhus,64.522,11.539,,,4001,,,,,,,,
17030206,Nøsthaugvegen,64.457,11.531,,,4001,,,,,,,,
17030207,Namsen legesenter,64.460,11.542,,,4001,,,,,,,,
17030208,TRB,64.460,11.548,,,4001,,,,,,,,
17030209,Namsos handelspark,64.464,11.508,,,4001,,,,,,,,
17030210,Bohus Østre,64.466,11.505,,,4001,,,,,,,,
17030211,Rema Østre,64.467,11.505,,,4001,,,,,,,,
17030212,Bekken,64.512,11.510,,,4001,,,,,,,,
17030213,Gifstad,64.515,11.519,,,4001,,,,,,,,
17030214,Bilsenteret Nybrua,64.456,11.527,,,4001,,,,,,,,
17030215,Romstad bomstasjon,64.329,11.545,,,4001,,,,,,,,
17030301,Høknes barneskole,64.472,11.536,,,4001,,,,,,,,
17030302,Bangsund skole,64.392,11.397,,,4001,,,,,,,,
17030319,Kleppen,64.475,11.530,,,4001,,,,,,,,
17030320,Gullholmstranda snuplasss,64.470,11.444,,,4001,,,,,,,,
17030348,Svingen,64.474,11.459,,,4001,,,,,,,,
17030354,Sentrum,64.466,11.492,,,4001,,,,,,,,
17030366,Saghaugen,64.466,11.478,,,4001,,,,,,,,
17030410,Skattmoen,64.389,11.513,,,4001,,,,,,,,
17030411,Andsjøen,64.358,11.529,,,4001,,,,,,,,
17030429,Myrabrua,64.346,11.541,,,4001,,,,,,,,
17030471,Finnanger,64.619,11.145,,,4001,,,,,,,,
17030601,Namsos lufthavn,64.474,11.567,,,4001,,,,,,,,
17030602,Ura,64.476,11.576,,,4001,,,,,,,,
17030657,Strand,64.472,11.609,,,4001,,,,,,,,
17030658,Myra,64.466,11.593,,,4001,,,,,,,,
17030659,Strømhylla,64.463,11.567,,,4001,,,,,,,,
17030719,Øya,64.540,11.284,,,4001,,,,,,,,
17030720,Årnes,64.588,11.265,,,4001,,,,,,,,
17030761,Lodovika,64.592,11.711,,,4001,,,,,,,,
17030765,Reitan,64.359,11.308,,,4001,,,,,,,,
17030766,Fjær,64.371,11.362,,,4001,,,,,,,,
17030767,Strømbrua,64.382,11.395,,,4001,,,,,,,,
17030768,Bangsund vegdele,64.391,11.400,,,4001,,,,,,,,
17030769,Bangsund,64.396,11.387,,,4001,,,,,,,,
17030770,Kvernhusdalen,64.400,11.416,,,4001,,,,,,,,
17030771,Selnes vegdele,64.402,11.428,,,4001,,,,,,,,
17030772,Pettermoen,64.404,11.441,,,4001,,,,,,,,
17030773,Klinga vegdele,64.409,11.478,,,4001,,,,,,,,
17030774,Myrvang,64.414,11.486,,,4001,,,,,,,,
17030775,Grønlihøgda,64.422,11.490,,,4001,,,,,,,,
17030776,Sævik søndre,64.424,11.490,,,4001,,,,,,,,
17030777,Sævik nordre,64.429,11.490,,,4001,,,,,,,,
17030779,Spillumshøgda,64.438,11.509,,,4001,,,,,,,,
17030782,Spillum vegdele,64.439,11.513,,,4001,,,,,,,,
17030783,Skogmohøgda,64.447,11.525,,,4001,,,,,,,,
17030787,Hylla,64.470,11.540,,,4001,,,,,,,,
17030788,Yrkesvegen,64.471,11.537,,,4001,,,,,,,,
17030790,Fossbrenna,64.481,11.539,,,4001,,,,,,,,
17030792,Oasen,64.472,11.525,,,4001,,,,,,,,
17030794,Prix Østbyen,64.470,11.520,,,4001,,,,,,,,
17030795,Namdalsvegen,64.468,11.506,,,4001,,,,,,,,
17030796,Sykehuset Namsos,64.469,11.502,,,4001,,,,,,,,
17030797,Snippen,64.468,11.502,,,4001,,,,,,,,
17030798,E-verket,64.467,11.497,,,4001,,,,,,,,
17030799,Namsos Samfunnshus,64.465,11.496,,,4001,,,,,,,,
17030800,Namsos skysstasjon,64.464,11.492,,,4001,,,,,,,,
17030801,Domus,64.467,11.492,,,4001,,,,,,,,
17030802,Vika,64.468,11.490,,,4001,,,,,,,,
17030803,HaBu,64.469,11.480,,,4001,,,,,,,,
17030806,Kjell Hals vei,64.472,11.468,,,4001,,,,,,,,
17030807,Gullvikmoen,64.473,11.466,,,4001,,,,,,,,
17030808,Frikirka,64.475,11.465,,,4001,,,,,,,,
17030809,Gullholmstranda,64.474,11.451,,,4001,,,,,,,,
17030810,Kattmarka,64.477,11.437,,,4001,,,,,,,,
17030811,Toddum,64.484,11.480,,,4001,,,,,,,,
17030812,Hals vegdele,64.489,11.476,,,4001,,,,,,,,
17030813,Hals,64.489,11.465,,,4001,,,,,,,,
17030815,Lænn,64.503,11.468,,,4001,,,,,,,,
17030816,Ramsvika,64.514,11.485,,,4001,,,,,,,,
17030817,Ramsvikskogen,64.515,11.502,,,4001,,,,,,,,
17030819,Vemundvik vegdele,64.518,11.538,,,4001,,,,,,,,
17030821,Sørenget,64.529,11.540,,,4001,,,,,,,,
17030824,Ytterby,64.554,11.526,,,4001,,,,,,,,
17030826,Spjøtnes,64.549,11.465,,,4001,,,,,,,,
17030827,Vikan,64.553,11.412,,,4001,,,,,,,,
17030840,Selnes snuplass,64.434,11.411,,,4001,,,,,,,,
17030841,Hovika,64.488,11.409,,,4001,,,,,,,,
17030842,Oterdalen,64.484,11.360,,,4001,,,,,,,,
17030843,Sandvika,64.484,11.346,,,4001,,,,,,,,
17030844,Broum,64.496,11.305,,,4001,,,,,,,,
17030845,Vik kirke,64.511,11.299,,,4001,,,,,,,,
17030846,Skomsvoll,64.516,11.289,,,4001,,,,,,,,
17030847,Husvik vegdele,64.529,11.315,,,4001,,,,,,,,
17030848,Vindsetmo,64.524,11.308,,,4001,,,,,,,,
17030849,Hamnes,64.513,11.220,,,4001,,,,,,,,
17030850,Otterøy,64.527,11.277,,,4001,,,,,,,,
17030851,Fosslandsosen,64.540,11.267,,,4001,,,,,,,,
17030852,Fossland,64.547,11.261,,,4001,,,,,,,,
17030853,Løvli,64.551,11.262,,,4001,,,,,,,,
17030854,Svemoen,64.561,11.268,,,4001,,,,,,,,
17030856,Årnes vegdele,64.584,11.260,,,4001,,,,,,,,
17030857,Årvika,64.593,11.259,,,4001,,,,,,,,
17030858,Tømmervika,64.611,11.203,,,4001,,,,,,,,
17030860,Devikmoen,64.626,11.145,,,4001,,,,,,,,
17030861,Devika,64.631,11.134,,,4001,,,,,,,,
17030863,Aglenårvika,64.634,11.077,,,4001,,,,,,,,
17030864,Aglen,64.632,11.062,,,4001,,,,,,,,
17030865,Alte,64.589,11.233,,,4001,,,,,,,,
17030867,Dalen,64.567,11.221,,,4001,,,,,,,,
17030868,Lennavika,64.573,11.212,,,4001,,,,,,,,
17030869,Storskorstad,64.577,11.186,,,4001,,,,,,,,
17030870,Skorstad,64.573,11.167,,,4001,,,,,,,,
17030877,Halla vegdele,64.588,11.623,,,4001,,,,,,,,
17030878,Foss,64.592,11.622,,,4001,,,,,,,,
17030912,Stranda,64.517,11.253,,,4001,,,,,,,,
17031061,Varpnes vegdele,64.493,11.469,,,4001,,,,,,,,
17031067,Lauvhammer,64.458,11.547,,,4001,,,,,,,,
17031068,Industrivegen,64.455,11.541,,,4001,,,,,,,,
17031069,Spillumstranda,64.452,11.535,,,4001,,,,,,,,
17031071,Storvikmyra,64.435,11.501,,,4001,,,,,,,,
17031072,Bogna bru nordre,64.388,11.399,,,4001,,,,,,,,
17031074,Bogna bru søndre,64.386,11.399,,,4001,,,,,,,,
17031076,Lilleenget,64.479,11.537,,,4001,,,,,,,,
17031077,Rådyrvegen,64.484,11.545,,,4001,,,,,,,,
17031078,Skoglyvegen,64.473,11.535,,,4001,,,,,,,,
17031080,Vestbyen skole,64.470,11.471,,,4001,,,,,,,,
17031083,Namsoshallen,64.471,11.533,,,4001,,,,,,,,
17031085,Grav,64.396,11.403,,,4001,,,,,,,,
17031166,Breistranda,64.536,11.308,,,4001,,,,,,,,
17031170,Altesjøen,64.587,11.223,,,4001,,,,,,,,
17031174,Namsos ungdomsskole,64.470,11.511,,,700,,,,,,,,
17031175,Otterøy skole,64.540,11.266,,,4001,,,,,,,,
17031176,Vasslia,64.632,11.095,,,4001,,,,,,,,
17031177,Husvik,64.535,11.320,,,4001,,,,,,,,
17031181,Lauvhammerhaugen,64.459,11.550,,,4001,,,,,,,,
17031182,Furnes,64.462,11.560,,,4001,,,,,,,,
17031183,Vik,64.465,11.588,,,4001,,,,,,,,
17031184,Buret,64.444,11.515,,,4001,,,,,,,,
17031185,Svea,64.440,11.512,,,4001,,,,,,,,
17031186,Mastin,64.418,11.489,,,4001,,,,,,,,
17031187,Vibstad,64.394,11.505,,,4001,,,,,,,,
17031188,Myrset,64.386,11.514,,,4001,,,,,,,,
17031189,Webster,64.381,11.522,,,4001,,,,,,,,
17031190,Solbakken,64.376,11.522,,,4001,,,,,,,,
17031191,Stendal,64.357,11.528,,,4001,,,,,,,,
17031192,Myra,64.352,11.536,,,4001,,,,,,,,
17031193,Nesjan,64.349,11.538,,,4001,,,,,,,,
17031194,Berre,64.344,11.541,,,4001,,,,,,,,
17031195,Fjell,64.342,11.544,,,4001,,,,,,,,
17031196,Romstad,64.340,11.547,,,4001,,,,,,,,
17031197,Finstad,64.338,11.548,,,4001,,,,,,,,
17031198,Skog snuplass,64.337,11.549,,,4001,,,,,,,,
17031200,Flakk,64.368,11.410,,,4001,,,,,,,,
17031201,Hamarsøy vegdele,64.546,11.538,,,4001,,,,,,,,
17031204,Alhus,64.522,11.538,,,4001,,,,,,,,
17031207,Namsen legesenter,64.460,11.542,,,4001,,,,,,,,
17031209,Namsos handelspark,64.464,11.509,,,4001,,,,,,,,
17031212,Bekken,64.513,11.510,,,4001,,,,,,,,
17031213,Gifstad,64.515,11.519,,,4001,,,,,,,,
17031319,Kleppen,64.474,11.528,,,4001,,,,,,,,
17031320,Gullholmstranda snuplasss,64.470,11.444,,,4001,,,,,,,,
17031366,Saghaugen,64.466,11.478,,,4001,,,,,,,,
17031410,Skattmoen,64.389,11.513,,,4001,,,,,,,,
17031411,Andsjøen,64.358,11.529,,,4001,,,,,,,,
17031429,Myrabrua,64.346,11.541,,,4001,,,,,,,,
17031471,Finnanger,64.619,11.145,,,4001,,,,,,,,
17031483,Kalkløyvvågen,64.560,11.369,,,4001,,,,,,,,
17031601,Namsos lufthavn,64.474,11.567,,,4001,,,,,,,,
17031602,Ura,64.476,11.575,,,4001,,,,,,,,
17031657,Strand,64.472,11.609,,,4001,,,,,,,,
17031658,Myra,64.466,11.593,,,4001,,,,,,,,
17031659,Strømhylla,64.463,11.567,,,4001,,,,,,,,
17031719,Øya,64.540,11.284,,,4001,,,,,,,,
17031720,Årnes,64.588,11.264,,,4001,,,,,,,,
17031765,Reitan,64.359,11.307,,,4001,,,,,,,,
17031766,Fjær,64.371,11.362,,,4001,,,,,,,,
17031767,Strømbrua,64.383,11.396,,,4001,,,,,,,,
17031768,Bangsund vegdele,64.391,11.399,,,4001,,,,,,,,
17031769,Bangsund,64.396,11.387,,,4001,,,,,,,,
17031770,Kvernhusdalen,64.400,11.415,,,4001,,,,,,,,
17031771,Selnes vegdele,64.402,11.427,,,4001,,,,,,,,
17031772,Pettermoen,64.405,11.441,,,4001,,,,,,,,
17031773,Klinga vegdele,64.409,11.478,,,4001,,,,,,,,
17031774,Myrvang,64.415,11.486,,,4001,,,,,,,,
17031775,Grønlihøgda,64.422,11.490,,,4001,,,,,,,,
17031776,Sævik søndre,64.424,11.489,,,4001,,,,,,,,
17031777,Sævik nordre,64.429,11.489,,,4001,,,,,,,,
17031779,Spillumshøgda,64.438,11.508,,,4001,,,,,,,,
17031782,Spillum vegdele,64.439,11.513,,,4001,,,,,,,,
17031787,Hylla,64.470,11.540,,,4001,,,,,,,,
17031790,Fossbrenna,64.482,11.539,,,4001,,,,,,,,
17031794,Prix Østbyen,64.469,11.520,,,4001,,,,,,,,
17031795,Namdalsvegen,64.468,11.507,,,4001,,,,,,,,
17031796,Sykehuset Namsos,64.469,11.502,,,700,,,,,,,,
17031797,Snippen,64.468,11.502,,,4001,,,,,,,,
17031799,Namsos Samfunnshus,64.465,11.496,,,4001,,,,,,,,
17031801,Domus,64.467,11.492,,,4001,,,,,,,,
17031802,Vika,64.468,11.489,,,4001,,,,,,,,
17031803,HaBu,64.469,11.481,,,4001,,,,,,,,
17031806,Kjell Hals vei,64.472,11.468,,,4001,,,,,,,,
17031807,Gullvikmoen,64.473,11.466,,,700,,,,,,,,
17031808,Frikirka,64.475,11.463,,,700,,,,,,,,
17031809,Gullholmstranda,64.474,11.451,,,4001,,,,,,,,
17031811,Toddum,64.484,11.479,,,4001,,,,,,,,
17031815,Lænn,64.503,11.468,,,4001,,,,,,,,
17031816,Ramsvika,64.514,11.485,,,4001,,,,,,,,
17031817,Ramsvikskogen,64.515,11.502,,,4001,,,,,,,,
17031819,Vemundvik vegdele,64.518,11.538,,,4001,,,,,,,,
17031821,Sørenget,64.529,11.539,,,4001,,,,,,,,
17031824,Ytterby,64.554,11.526,,,4001,,,,,,,,
17031826,Spjøtnes,64.549,11.465,,,4001,,,,,,,,
17031841,Hovika,64.488,11.409,,,4001,,,,,,,,
17031842,Oterdalen,64.484,11.360,,,4001,,,,,,,,
17031843,Sandvika,64.484,11.346,,,4001,,,,,,,,
17031844,Broum,64.496,11.304,,,4001,,,,,,,,
17031845,Vik kirke,64.511,11.298,,,4001,,,,,,,,
17031846,Skomsvoll,64.516,11.289,,,4001,,,,,,,,
17031847,Husvik vegdele,64.529,11.315,,,4001,,,,,,,,
17031848,Vindsetmo,64.525,11.308,,,4001,,,,,,,,
17031849,Hamnes,64.513,11.220,,,4001,,,,,,,,
17031850,Otterøy,64.527,11.277,,,4001,,,,,,,,
17031851,Fosslandsosen,64.540,11.267,,,4001,,,,,,,,
17031852,Fossland,64.547,11.261,,,4001,,,,,,,,
17031853,Løvli,64.551,11.262,,,4001,,,,,,,,
17031854,Svemoen,64.561,11.268,,,4001,,,,,,,,
17031856,Årnes vegdele,64.584,11.260,,,4001,,,,,,,,
17031857,Årvika,64.593,11.259,,,4001,,,,,,,,
17031858,Tømmervika,64.611,11.203,,,4001,,,,,,,,
17031860,Devikmoen,64.626,11.145,,,4001,,,,,,,,
17031861,Devika,64.631,11.134,,,4001,,,,,,,,
17031863,Aglenårvika,64.634,11.077,,,4001,,,,,,,,
17031864,Aglen,64.632,11.062,,,4001,,,,,,,,
17031865,Alte,64.589,11.233,,,4001,,,,,,,,
17031867,Dalen,64.567,11.221,,,4001,,,,,,,,
17031868,Lennavika,64.573,11.212,,,4001,,,,,,,,
17031869,Storskorstad,64.577,11.186,,,4001,,,,,,,,
17031870,Skorstad,64.573,11.167,,,4001,,,,,,,,
17031871,Skorstad vegdele,64.584,11.256,,,4001,,,,,,,,
17031912,Stranda,64.517,11.253,,,4001,,,,,,,,
17031942,Ganes,64.530,11.512,,,4001,,,,,,,,
17032821,Sørenget,64.529,11.540,,,4001,,,,,,,,
17032846,Skomsvoll,64.516,11.289,,,4001,,,,,,,,
17032871,Skorstad vegdele,64.584,11.256,,,4001,,,,,,,,
17032872,Tungramoen,64.439,11.520,,,4001,,,,,,,,
17140063,Vollan,63.497,10.878,,,2003,,,,,,,,
17140065,Kilnesgården,63.468,10.914,,,2003,,,,,,,,
17140090,Paradisbukta,63.556,10.921,,,3006,,,,,,,,
17140582,Aglo vgs.,63.533,10.824,,,2003,,,,,,,,
17140583,Krokvika sør,63.544,10.876,,,2003,,,,,,,,
17140589,Voll Skatval,63.505,10.857,,,2003,,,,,,,,
17140597,Krokvika nord,63.544,10.879,,,2003,,,,,,,,
17140617,Halsen ungdomsskole,63.470,10.926,,,2003,,,,,,,,
17140756,Kvithammer,63.490,10.885,,,2003,,,,,,,,
17140767,Skatvalskorsen,63.509,10.852,,,2003,,,,,,,,
17140769,Forbord,63.519,10.854,,,2003,,,,,,,,
17140779,Langstein,63.544,10.892,,,2003,,,,,,,,
17141063,Vollan,63.496,10.879,,,2003,,,,,,,,
17141065,Kilnesgården,63.468,10.914,,,2003,,,,,,,,
17141090,Paradisbukta,63.556,10.921,,,3006,,,,,,,,
17141582,Aglo vgs.,63.533,10.824,,,2003,,,,,,,,
17141589,Voll,63.505,10.857,,,2003,,,,,,,,
17141617,Halsen ungdomsskole,63.470,10.926,,,2003,,,,,,,,
17141756,Kvithammer,63.490,10.884,,,2003,,,,,,,,
17141767,Skatvalskorsen,63.509,10.852,,,2003,,,,,,,,
17141769,Forbord,63.519,10.854,,,2003,,,,,,,,
17141779,Langstein,63.544,10.891,,,2003,,,,,,,,
17142510,Stjørdal stasjon,63.469,10.913,,,2003,,,,,,,,
17142707,Torvet,63.468,10.923,,,2003,,,,,,,,
17145707,Torvet,63.468,10.923,,,2003,,,,,,,,
17170148,Kvarme,63.583,10.770,,,3006,,,,,,,,
17170149,Hellan,63.584,10.766,,,3006,,,,,,,,
17170271,Nybø,63.581,10.777,,,3006,,,,,,,,
17170816,Stene Giset,63.590,10.826,,,3006,,,,,,,,
17170817,Hovdalskorsen,63.614,10.820,,,3006,,,,,,,,
17170818,Hojem,63.608,10.815,,,3006,,,,,,,,
17170819,Mestuggu,63.603,10.820,,,3006,,,,,,,,
17170820,Ulvik,63.599,10.840,,,3006,,,,,,,,
17170821,Aunsjøen,63.606,10.878,,,3006,,,,,,,,
17170822,Lillevik,63.610,10.895,,,3006,,,,,,,,
17170825,Juberg,63.583,10.759,,,3006,,,,,,,,
17170826,Ravlosve,63.580,10.786,,,3006,,,,,,,,
17170827,Vågen,63.583,10.803,,,3006,,,,,,,,
17170828,Esso,63.580,10.756,,,3006,,,,,,,,
17170829,Vikakorsen,63.575,10.742,,,3006,,,,,,,,
17170830,Smålandsbakkan,63.591,10.713,,,3006,,,,,,,,
17170832,Nåvik,63.603,10.734,,,3006,,,,,,,,
17170834,Tautra,63.577,10.621,,,3006,,,,,,,,
17170835,Haugan,63.545,10.656,,,3006,,,,,,,,
17170836,Solvang,63.554,10.676,,,3006,,,,,,,,
17170837,Mostadkorsen,63.559,10.692,,,3006,,,,,,,,
17170838,Kroglund,63.566,10.703,,,3006,,,,,,,,
17170839,Rygg,63.574,10.690,,,3006,,,,,,,,
17170841,Varteig,63.569,10.718,,,3006,,,,,,,,
17170842,Holmberget,63.580,10.677,,,3006,,,,,,,,
17170843,Skogseth,63.613,10.748,,,3006,,,,,,,,
17170844,Romma,63.623,10.763,,,3006,,,,,,,,
17170845,Fånes,63.631,10.784,,,3006,,,,,,,,
17170846,Hellberg,63.632,10.811,,,3006,,,,,,,,
17170847,Staur,63.636,10.840,,,3006,,,,,,,,
17170848,Brubakken,63.632,10.832,,,3006,,,,,,,,
17170851,Kvamkorsen,63.618,10.817,,,3006,,,,,,,,
17170853,Åtlo,63.645,10.865,,,3006,,,,,,,,
17170854,Fossli,63.638,10.846,,,3006,,,,,,,,
17170906,Fossbakken,63.633,10.859,,,3006,,,,,,,,
17170910,Frøstad,63.620,10.800,,,3006,,,,,,,,
17170911,Skaret,63.595,10.735,,,3006,,,,,,,,
17170913,Riset,63.588,10.714,,,3006,,,,,,,,
17170915,Lein,63.578,10.713,,,3006,,,,,,,,
17170917,Valtun,63.557,10.686,,,3006,,,,,,,,
17170918,Øra,63.556,10.653,,,3006,,,,,,,,
17170964,Øvre,63.553,10.660,,,3006,,,,,,,,
17170965,Dalsve,63.606,10.842,,,3006,,,,,,,,
17170967,Frosta skole,63.585,10.736,,,3006,,,,,,,,
17170968,Kjelsås,63.590,10.736,,,3006,,,,,,,,
17171148,Kvarme,63.583,10.770,,,3006,,,,,,,,
17171149,Hellan,63.584,10.766,,,3006,,,,,,,,
17171271,Nybø,63.581,10.777,,,3006,,,,,,,,
17171816,Stene,63.590,10.827,,,3006,,,,,,,,
17171817,Hovdalskorsen,63.613,10.820,,,3006,,,,,,,,
17171818,Hojem,63.608,10.815,,,3006,,,,,,,,
17171819,Mestuggu,63.603,10.820,,,3006,,,,,,,,
17171820,Ulvik,63.599,10.841,,,3006,,,,,,,,
17171821,Aunsjøen,63.606,10.878,,,3006,,,,,,,,
17171822,Lillevik,63.609,10.894,,,3006,,,,,,,,
17171824,Frosta sentrum,63.587,10.742,,,3006,,,,,,,,
17171825,Juberg,63.583,10.759,,,3006,,,,,,,,
17171826,Ravlosve,63.580,10.788,,,3006,,,,,,,,
17171827,Vågen,63.583,10.803,,,3006,,,,,,,,
17171828,Esso,63.580,10.756,,,3006,,,,,,,,
17171829,Vikakorsen,63.575,10.742,,,3006,,,,,,,,
17171830,Smålandsbakkan,63.591,10.713,,,3006,,,,,,,,
17171832,Nåvik,63.602,10.733,,,3006,,,,,,,,
17171834,Tautra,63.577,10.621,,,3006,,,,,,,,
17171835,Haugan,63.545,10.656,,,3006,,,,,,,,
17171836,Solvang,63.554,10.676,,,3006,,,,,,,,
17171837,Mostadkorsen,63.559,10.692,,,3006,,,,,,,,
17171838,Kroglund,63.566,10.703,,,3006,,,,,,,,
17171839,Rygg,63.574,10.691,,,3006,,,,,,,,
17171841,Varteig,63.569,10.717,,,3006,,,,,,,,
17171842,Holmberget,63.580,10.677,,,3006,,,,,,,,
17171843,Skogseth,63.613,10.748,,,3006,,,,,,,,
17171844,Romma,63.623,10.762,,,3006,,,,,,,,
17171845,Fånes,63.632,10.784,,,3006,,,,,,,,
17171846,Hellberg,63.632,10.812,,,3006,,,,,,,,
17171847,Staur,63.636,10.840,,,3006,,,,,,,,
17171848,Brubakken,63.632,10.833,,,3006,,,,,,,,
17171849,Minde,63.603,10.792,,,3006,,,,,,,,
17171850,Myraunet,63.607,10.799,,,3006,,,,,,,,
17171851,Kvamkorsen,63.618,10.817,,,3006,,,,,,,,
17171853,Åtlo,63.645,10.865,,,3006,,,,,,,,
17171854,Fossli,63.638,10.846,,,3006,,,,,,,,
17171910,Frøstad,63.620,10.800,,,3006,,,,,,,,
17171911,Skaret,63.594,10.735,,,3006,,,,,,,,
17171913,Riset,63.588,10.714,,,3006,,,,,,,,
17171915,Lein,63.578,10.713,,,3006,,,,,,,,
17171916,Tingstad,63.568,10.691,,,3006,,,,,,,,
17171917,Valtun,63.557,10.686,,,3006,,,,,,,,
17171918,Øra,63.556,10.653,,,3006,,,,,,,,
17171964,Øvre,63.553,10.661,,,3006,,,,,,,,
17171965,Dalsve,63.606,10.843,,,3006,,,,,,,,
17171967,Frosta skole,63.586,10.738,,,3006,,,,,,,,
17171968,Kjelsås,63.590,10.736,,,3006,,,,,,,,
17172838,Kroglund,63.566,10.703,,,3006,,,,,,,,
17172839,Rygg,63.574,10.690,,,3006,,,,,,,,
17172844,Romma,63.623,10.762,,,3006,,,,,,,,
17172847,Staur,63.636,10.840,,,3006,,,,,,,,
17172851,Kvamskorsen,63.618,10.817,,,3006,,,,,,,,
17173839,Rygg,63.574,10.690,,,3006,,,,,,,,
17180087,Grande vegdele,63.668,10.613,,,2001,,,,,,,,
17180088,Grandesvingen,63.666,10.607,,,2001,,,,,,,,
17180805,Aune,63.709,10.636,,,2001,,,,,,,,
17180808,Hovstein,63.701,10.597,,,2001,,,,,,,,
17180809,Testmann,63.679,10.605,,,2001,,,,,,,,
17180821,Vanvikan,63.553,10.220,,,2001,,,,,,,,
17180889,Kråkmo vegdele,63.650,10.264,,,2001,,,,,,,,
17180890,Bjørsetåsen,63.639,10.270,,,2001,,,,,,,,
17180891,Rønningen,63.653,10.255,,,2001,,,,,,,,
17180895,Breidli,63.616,10.233,,,2001,,,,,,,,
17180896,Omundvågen,63.633,10.265,,,2001,,,,,,,,
17180897,Dalsaune,63.601,10.225,,,2001,,,,,,,,
17180898,Kirkneset vegdele,63.608,10.236,,,2001,,,,,,,,
17180899,Nordgjerdet,63.619,10.238,,,2001,,,,,,,,
17180900,Roten,63.593,10.206,,,2001,,,,,,,,
17180903,Fjølvika,63.584,10.189,,,2001,,,,,,,,
17180904,Kopperået,63.588,10.191,,,2001,,,,,,,,
17180924,Tetlia,63.708,10.627,,,2001,,,,,,,,
17180925,Melhus,63.707,10.617,,,2001,,,,,,,,
17180926,Kruken,63.709,10.605,,,2001,,,,,,,,
17180940,Kroabrua,63.673,10.629,,,2001,,,,,,,,
17180943,Leksvik vgs.,63.678,10.619,,,2001,,,,,,,,
17180944,Lerstad,63.683,10.592,,,2001,,,,,,,,
17180947,Steinavegen vegdele,63.670,10.599,,,2001,,,,,,,,
17180948,Liabakk,63.671,10.592,,,2001,,,,,,,,
17180949,Brandsås,63.674,10.583,,,2001,,,,,,,,
17180958,Fagerli vegdele,63.557,10.180,,,2001,,,,,,,,
17180962,Vollakrysset,63.549,10.201,,,2001,,,,,,,,
17180965,Keiserås vegdele,63.572,10.173,,,2001,,,,,,,,
17181087,Grande vegdele,63.668,10.612,,,2001,,,,,,,,
17181088,Grandesvingen,63.666,10.606,,,2001,,,,,,,,
17181089,Røstadlia,63.697,10.628,,,2001,,,,,,,,
17181809,Testmann,63.679,10.605,,,2001,,,,,,,,
17181812,Blomliflata,63.702,10.636,,,2001,,,,,,,,
17181821,Vanvikan,63.553,10.223,,,2001,,,,,,,,
17181889,Kråkmo vegdele,63.650,10.265,,,2001,,,,,,,,
17181890,Bjørsetåsen,63.639,10.270,,,2001,,,,,,,,
17181891,Rønningen,63.653,10.255,,,2001,,,,,,,,
17181895,Breidli,63.616,10.233,,,2001,,,,,,,,
17181896,Omundsvågen,63.633,10.265,,,2001,,,,,,,,
17181897,Dalsaune,63.601,10.225,,,2001,,,,,,,,
17181898,Kirkneset vegdele,63.608,10.236,,,2001,,,,,,,,
17181899,Nordgjerdet,63.619,10.238,,,2001,,,,,,,,
17181900,Roten,63.593,10.205,,,2001,,,,,,,,
17181903,Fjølvika,63.584,10.189,,,2001,,,,,,,,
17181904,Kopperået,63.588,10.191,,,2001,,,,,,,,
17181927,Skikstein,63.691,10.627,,,2001,,,,,,,,
17181928,Rosvold,63.687,10.624,,,2001,,,,,,,,
17181931,Fredriksberg,63.684,10.631,,,2001,,,,,,,,
17181936,Hagen,63.683,10.627,,,2001,,,,,,,,
17181937,Røstad,63.677,10.635,,,2001,,,,,,,,
17181940,Kroabrua,63.673,10.629,,,2001,,,,,,,,
17181941,Kroa,63.673,10.634,,,2001,,,,,,,,
17181947,Steinavegen vegdele,63.670,10.599,,,2001,,,,,,,,
17181948,Liabakk,63.671,10.592,,,2001,,,,,,,,
17181958,Fagerli vegdele,63.557,10.180,,,2001,,,,,,,,
17181962,Vollakrysset,63.549,10.201,,,2001,,,,,,,,
17181965,Keiserås vegdele,63.572,10.172,,,2001,,,,,,,,
17190044,Salthammer nordre,63.764,11.425,,,3006,,,,,,,,
17190054,Stabelvollen,63.749,11.308,,,3006,,,,,,,,
17190055,Levanger vgs.,63.741,11.286,,,3006,,,,,,,,
17190056,Magneten,63.734,11.282,,,3006,,,,,,,,
17190057,Nossum,63.725,11.260,,,3006,,,,,,,,
17190101,Nordmarka,63.726,11.270,,,3006,,,,,,,,
17190102,Magneten øst,63.733,11.288,,,3006,,,,,,,,
17190104,Levanger stasjon,63.745,11.300,,,3006,,,,,,,,
17190106,Røstadlia nedre,63.750,11.320,,,3006,,,,,,,,
17190108,Skogstad,63.695,11.462,,,3006,,,,,,,,
17190110,Leira mottak,63.747,11.316,,,3006,,,,,,,,
17190111,Holm,63.733,11.397,,,3006,,,,,,,,
17190112,Skillstad,63.736,11.378,,,3006,,,,,,,,
17190113,Ner,63.736,11.349,,,3006,,,,,,,,
17190117,Floan,63.731,11.352,,,3006,,,,,,,,
17190119,Røstadlia øvre,63.751,11.336,,,3006,,,,,,,,
17190120,Skånesvegen,63.769,11.410,,,3006,,,,,,,,
17190121,Stene,63.763,11.403,,,3006,,,,,,,,
17190122,Vasstårnet,63.762,11.380,,,3006,,,,,,,,
17190123,Salthammer,63.756,11.424,,,3006,,,,,,,,
17190124,Haugskott,63.751,11.399,,,3006,,,,,,,,
17190125,Haugskottvegen,63.754,11.393,,,3006,,,,,,,,
17190127,Sørholt,63.753,11.371,,,3006,,,,,,,,
17190128,Nord universitet Levanger,63.754,11.312,,,3006,,,,,,,,
17190129,Storsvekorsen,63.730,11.314,,,3006,,,,,,,,
17190130,Seterkorsen,63.753,11.361,,,3006,,,,,,,,
17190133,Borgåskorsen,63.759,11.357,,,3006,,,,,,,,
17190136,Nordbakk,63.736,11.361,,,3006,,,,,,,,
17190137,Alfnes,63.736,11.223,,,3006,,,,,,,,
17190138,Skjetnemark,63.752,11.215,,,3006,,,,,,,,
17190139,Håa,63.753,11.232,,,3006,,,,,,,,
17190140,Flatåsen,63.712,11.362,,,3006,,,,,,,,
17190141,Jevika,63.707,11.020,,,3006,,,,,,,,
17190142,Langås,63.672,11.082,,,3006,,,,,,,,
17190143,Skjesol,63.703,11.194,,,3006,,,,,,,,
17190144,Domus,63.744,11.297,,,3006,,,,,,,,
17190145,Bjørnang,63.673,11.239,,,3006,,,,,,,,
17190146,Levanger kirke,63.745,11.295,,,3006,,,,,,,,
17190147,Finnekorsen,63.663,11.223,,,3006,,,,,,,,
17190149,Staupslia verksted,63.750,11.289,,,3006,,,,,,,,
17190150,Sjøbadet,63.751,11.289,,,3006,,,,,,,,
17190151,Vårtun kristne oppvekstsenter,63.740,11.253,,,3006,,,,,,,,
17190152,Joplassvegen,63.754,11.285,,,3006,,,,,,,,
17190153,Kalkovnan,63.758,11.279,,,3006,,,,,,,,
17190155,Friggs veg,63.756,11.276,,,3006,,,,,,,,
17190157,Brages veg,63.755,11.264,,,3006,,,,,,,,
17190158,Bakkegata,63.742,11.292,,,3006,,,,,,,,
17190159,Nesset,63.751,11.263,,,3006,,,,,,,,
17190160,Gjemblekorsen,63.749,11.270,,,3006,,,,,,,,
17190161,Breidablikk,63.747,11.281,,,3006,,,,,,,,
17190163,Moan studentbolig,63.738,11.280,,,3006,,,,,,,,
17190164,Branesvegen,63.730,11.285,,,3006,,,,,,,,
17190165,Momarkvegen,63.729,11.280,,,3006,,,,,,,,
17190166,Bringebærvegen,63.720,11.271,,,3006,,,,,,,,
17190167,Tyttebærvegen,63.720,11.273,,,3006,,,,,,,,
17190168,Kreklingvegen,63.722,11.279,,,3006,,,,,,,,
17190169,Høgberget snuplass,63.723,11.282,,,3006,,,,,,,,
17190170,Kløverstien,63.725,11.282,,,3006,,,,,,,,
17190171,Symrevegen,63.726,11.287,,,3006,,,,,,,,
17190172,Momarka barnehage,63.727,11.288,,,3006,,,,,,,,
17190173,Skippervegen,63.728,11.284,,,3006,,,,,,,,
17190179,Stadionparken,63.743,11.295,,,3006,,,,,,,,
17190186,Mulelia,63.760,11.405,,,3006,,,,,,,,
17190187,Grønnlia,63.762,11.417,,,3006,,,,,,,,
17190188,Rinnleiret,63.765,11.438,,,3006,,,,,,,,
17190189,Rinnan stasjon,63.760,11.440,,,3006,,,,,,,,
17190190,Rinnan øvre,63.758,11.449,,,3006,,,,,,,,
17190191,Skånes,63.774,11.400,,,3006,,,,,,,,
17190192,Roaldmarka,63.764,11.411,,,3006,,,,,,,,
17190194,Storborg,63.761,11.368,,,3006,,,,,,,,
17190257,Slettbekken,63.616,11.281,,,3006,,,,,,,,
17190258,Hjelmstadbakk,63.605,11.271,,,3006,,,,,,,,
17190259,Åsen butikk,63.610,11.051,,,3006,,,,,,,,
17190260,Åsen E6 nord,63.612,11.059,,,3006,,,,,,,,
17190263,Svartåsen,63.616,11.340,,,3006,,,,,,,,
17190265,Stavlo østre,63.700,11.236,,,3006,,,,,,,,
17190266,Rendenkorsen,63.703,11.235,,,3006,,,,,,,,
17190267,Eggenkorsen,63.712,11.215,,,3006,,,,,,,,
17190269,Magneten sør,63.732,11.284,,,3006,,,,,,,,
17190270,Mule,63.756,11.388,,,3006,,,,,,,,
17190287,Markabygda montessoriskole,63.637,11.277,,,3006,,,,,,,,
17190288,Ekne skole,63.697,11.040,,,3006,,,,,,,,
17190322,Øvre Erstad,63.780,11.073,,,3006,,,,,,,,
17190323,Erstad,63.777,11.063,,,3006,,,,,,,,
17190363,Kjønstadmarka øvre,63.758,11.262,,,3006,,,,,,,,
17190364,Levanger ungdomsskole havna,63.751,11.300,,,3006,,,,,,,,
17190365,Levanger ungdomsskole Røstad,63.751,11.311,,,3006,,,,,,,,
17190482,Kulåskorsen,63.622,11.331,,,3006,,,,,,,,
17190640,Dullum,63.625,11.095,,,3006,,,,,,,,
17190641,Åsen bensinstasjon,63.607,11.042,,,3006,,,,,,,,
17190642,Simons interiør,63.604,11.012,,,3006,,,,,,,,
17190643,Grendebakken,63.602,11.039,,,3006,,,,,,,,
17190644,Augdal,63.590,11.005,,,3006,,,,,,,,
17190645,Åker vegdele,63.590,11.001,,,3006,,,,,,,,
17190646,Storsve,63.584,11.009,,,3006,,,,,,,,
17190647,Vudduaunet,63.580,11.001,,,3006,,,,,,,,
17190648,Hovehaug,63.614,11.068,,,3006,,,,,,,,
17190649,Hokling,63.606,11.090,,,3006,,,,,,,,
17190650,Husby,63.617,11.098,,,3006,,,,,,,,
17190651,Husby,63.622,11.105,,,3006,,,,,,,,
17190652,Hellem,63.601,10.987,,,3006,,,,,,,,
17190653,Hellemskorsen,63.602,10.994,,,3006,,,,,,,,
17190654,Brandalen,63.604,11.005,,,3006,,,,,,,,
17190656,Sunndalen snuplass,63.615,10.908,,,3006,,,,,,,,
17190657,Bergheimkorsen,63.595,10.970,,,3006,,,,,,,,
17190658,Vollkrysset,63.595,10.978,,,3006,,,,,,,,
17190659,Voll,63.595,10.978,,,3006,,,,,,,,
17190660,Tillerkleiva,63.592,10.982,,,3006,,,,,,,,
17190661,Tildra,63.591,10.988,,,3006,,,,,,,,
17190662,Brakstadbakken,63.590,10.960,,,3006,,,,,,,,
17190663,Solhaug,63.594,10.938,,,3006,,,,,,,,
17190664,Lobakken,63.593,10.916,,,3006,,,,,,,,
17190665,Nordaunet,63.580,10.902,,,3006,,,,,,,,
17190666,Skjesol,63.584,10.929,,,3006,,,,,,,,
17190668,Åker snuplass,63.582,10.961,,,3006,,,,,,,,
17190669,Hammer,63.625,11.067,,,3006,,,,,,,,
17190670,Trosdal,63.630,11.065,,,3006,,,,,,,,
17190672,Nonstad,63.643,11.071,,,3006,,,,,,,,
17190673,Nonstad ytre,63.646,11.073,,,3006,,,,,,,,
17190674,Hiberg,63.648,11.076,,,3006,,,,,,,,
17190675,Ronglan vegdele,63.663,11.111,,,3006,,,,,,,,
17190681,Sjurplassen,63.633,11.135,,,3006,,,,,,,,
17190683,Laplassen vegdele,63.607,11.125,,,3006,,,,,,,,
17190684,Røstadvika,63.613,11.142,,,3006,,,,,,,,
17190686,Strømmen nedre,63.619,11.164,,,3006,,,,,,,,
17190687,Aspåsen,63.618,11.193,,,3006,,,,,,,,
17190688,Åsen barne- og ungdomsskole,63.611,11.050,,,3006,,,,,,,,
17190690,Eines,63.812,11.209,,,3006,,,,,,,,
17190691,Barstad,63.807,11.206,,,3006,,,,,,,,
17190692,Nergårdshaugen,63.801,11.195,,,3006,,,,,,,,
17190693,Forberg,63.800,11.182,,,3006,,,,,,,,
17190694,Øster-Værås,63.809,11.180,,,3006,,,,,,,,
17190695,Laugsand,63.813,11.194,,,3006,,,,,,,,
17190697,Hokstad Ferjeleie,63.798,11.168,,,3006,,,,,,,,
17190698,Øvre,63.800,11.160,,,3006,,,,,,,,
17190699,Prestegården,63.802,11.147,,,3006,,,,,,,,
17190700,Overlandet,63.798,11.133,,,3006,,,,,,,,
17190701,Inner-Berg,63.796,11.134,,,3006,,,,,,,,
17190702,Kjølsvika,63.789,11.134,,,3006,,,,,,,,
17190703,Brenne,63.776,11.102,,,3006,,,,,,,,
17190704,Bjørvik nedre,63.768,11.085,,,3006,,,,,,,,
17190705,Jørstadsjøen,63.798,11.099,,,3006,,,,,,,,
17190706,Osa,63.794,11.080,,,3006,,,,,,,,
17190707,Jønvik,63.788,11.069,,,3006,,,,,,,,
17190708,Vesterhus,63.785,11.063,,,3006,,,,,,,,
17190709,Skaukorsen,63.787,11.086,,,3006,,,,,,,,
17190710,Bergsøra,63.764,11.078,,,3006,,,,,,,,
17190711,Naust,63.761,11.059,,,3006,,,,,,,,
17190712,Gravakorsen,63.753,11.030,,,3006,,,,,,,,
17190713,Ytterøy skole,63.770,11.051,,,3006,,,,,,,,
17190800,Vuddu,63.577,10.991,,,3006,,,,,,,,
17190801,Fætta,63.565,10.945,,,3006,,,,,,,,
17190802,Vordal,63.589,11.019,,,3006,,,,,,,,
17190803,Åsen E6,63.611,11.053,,,3006,,,,,,,,
17190808,Oldret,63.613,10.922,,,3006,,,,,,,,
17190809,Leangen,63.613,10.935,,,3006,,,,,,,,
17190811,Åsenfjord,63.600,10.972,,,3006,,,,,,,,
17190812,Undlien,63.579,10.913,,,3006,,,,,,,,
17190813,Brakstad vegdele,63.594,10.964,,,3006,,,,,,,,
17190862,Melhus,63.636,11.063,,,3006,,,,,,,,
17190864,Skillbrigt,63.671,11.068,,,3006,,,,,,,,
17190865,Dahling,63.672,11.088,,,3006,,,,,,,,
17190866,Ronglansdalen,63.670,11.103,,,3006,,,,,,,,
17190868,Tuv,63.675,11.130,,,3006,,,,,,,,
17190869,Skjervesmarka,63.676,11.144,,,3006,,,,,,,,
17190870,Skjerve,63.681,11.172,,,3006,,,,,,,,
17190871,Hofsdalen,63.689,11.184,,,3006,,,,,,,,
17190872,Strandkorsen,63.699,11.084,,,3006,,,,,,,,
17190876,Brokstien,63.688,11.133,,,3006,,,,,,,,
17190877,Rendum,63.695,11.146,,,3006,,,,,,,,
17190878,Kjølåskorsen,63.674,11.067,,,3006,,,,,,,,
17190879,Skogn barne- og ungdomsskole,63.699,11.205,,,3006,,,,,,,,
17190880,Skogn stasjon,63.704,11.193,,,3006,,,,,,,,
17190881,Skille,63.690,11.225,,,3006,,,,,,,,
17190882,Luksuskorsen,63.695,11.221,,,3006,,,,,,,,
17190884,Småland,63.695,11.199,,,3006,,,,,,,,
17190886,Holåsen vest,63.701,11.173,,,3006,,,,,,,,
17190889,Skogn sentrum,63.705,11.191,,,3006,,,,,,,,
17190892,Korsbakken,63.716,11.223,,,3006,,,,,,,,
17190893,Gråmyrbakken nord,63.718,11.243,,,3006,,,,,,,,
17190894,Gilstadsaga,63.720,11.225,,,3006,,,,,,,,
17190895,Alstadhaug kirke,63.723,11.226,,,3006,,,,,,,,
17190897,Vestrum,63.706,11.011,,,3006,,,,,,,,
17190898,Østhaugen,63.705,11.033,,,3006,,,,,,,,
17190899,Falstad øvre,63.702,11.035,,,3006,,,,,,,,
17190900,Ekne sentrum,63.695,11.045,,,3006,,,,,,,,
17190901,Bakkan,63.689,11.059,,,3006,,,,,,,,
17190902,Øra,63.679,11.055,,,3006,,,,,,,,
17190903,Bjørgum,63.696,11.063,,,3006,,,,,,,,
17190907,Svendsen,63.630,11.199,,,3006,,,,,,,,
17190908,Tangsvekorsen,63.629,11.180,,,3006,,,,,,,,
17190909,Gryte,63.637,11.183,,,3006,,,,,,,,
17190911,Sundlokorsen,63.651,11.188,,,3006,,,,,,,,
17190912,Hojem,63.656,11.199,,,3006,,,,,,,,
17190913,Kjesbuskorsen,63.662,11.201,,,3006,,,,,,,,
17190914,Finne,63.662,11.217,,,3006,,,,,,,,
17190915,Byakorsen nedre,63.670,11.225,,,3006,,,,,,,,
17190916,Brenne,63.677,11.236,,,3006,,,,,,,,
17190917,Leinskorsen,63.683,11.239,,,3006,,,,,,,,
17190918,Snøplogbakken,63.647,11.238,,,3006,,,,,,,,
17190919,Svartåsen,63.654,11.238,,,3006,,,,,,,,
17190920,Hjemble,63.660,11.240,,,3006,,,,,,,,
17190921,Byakorsen øvre,63.669,11.233,,,3006,,,,,,,,
17190922,Lundsvoll,63.658,11.241,,,3006,,,,,,,,
17190927,Sjåstaddalen,63.631,11.296,,,3006,,,,,,,,
17190928,Gammelmeieriet,63.637,11.285,,,3006,,,,,,,,
17190929,Markabygda sentrum,63.637,11.274,,,3006,,,,,,,,
17190930,Flåa,63.640,11.258,,,3006,,,,,,,,
17190931,Langåsbakken,63.642,11.250,,,3006,,,,,,,,
17190932,Burheim,63.638,11.241,,,3006,,,,,,,,
17190933,Søraker,63.632,11.210,,,3006,,,,,,,,
17190937,Kårabakken,63.718,11.498,,,3006,,,,,,,,
17190938,Skogseth,63.725,11.494,,,3006,,,,,,,,
17190939,Gustakorsen,63.737,11.487,,,3006,,,,,,,,
17190942,Okkenhaug skole,63.729,11.446,,,3006,,,,,,,,
17190943,Okkenhaugkleivan,63.729,11.438,,,3006,,,,,,,,
17190944,Friberg,63.730,11.428,,,3006,,,,,,,,
17190945,Munkrøstad,63.733,11.407,,,3006,,,,,,,,
17190946,Stokkbakken,63.704,11.382,,,3006,,,,,,,,
17190948,Matberg,63.725,11.549,,,3006,,,,,,,,
17190949,Berg,63.720,11.544,,,3006,,,,,,,,
17190950,Mobekkmo,63.716,11.531,,,3006,,,,,,,,
17190951,Grendahl,63.716,11.516,,,3006,,,,,,,,
17190952,Vulusjøvegen,63.716,11.506,,,3006,,,,,,,,
17190953,Frol barneskole,63.745,11.321,,,3006,,,,,,,,
17190954,Rinnan nedre,63.765,11.448,,,3006,,,,,,,,
17190955,Munkebykorsen,63.725,11.369,,,3006,,,,,,,,
17190956,Munkeby,63.723,11.380,,,3006,,,,,,,,
17190957,Slåttsve,63.716,11.380,,,3006,,,,,,,,
17190958,Bergenget,63.714,11.365,,,3006,,,,,,,,
17190959,Fossen,63.714,11.360,,,3006,,,,,,,,
17190960,Langåsdammen,63.710,11.349,,,3006,,,,,,,,
17190965,Halsan skole,63.724,11.310,,,3006,,,,,,,,
17190966,Halsankorsen,63.731,11.296,,,3006,,,,,,,,
17190967,Byborg,63.747,11.289,,,3006,,,,,,,,
17190968,Gilstadlia,63.711,11.250,,,3006,,,,,,,,
17190969,Skjerpingen,63.728,11.229,,,3006,,,,,,,,
17190972,Bergvinan,63.752,11.256,,,3006,,,,,,,,
17190973,Nesheim skole,63.739,11.252,,,3006,,,,,,,,
17190974,Reistadkorsen,63.720,11.460,,,3006,,,,,,,,
17190975,Sykehuset Levanger,63.741,11.289,,,3006,,,,,,,,
17191044,Salthammer nordre,63.764,11.425,,,551,,,,,,,,
17191054,Stabelvollen,63.750,11.309,,,3006,,,,,,,,
17191055,Levanger vgs.,63.741,11.284,,,3006,,,,,,,,
17191056,Magneten,63.734,11.281,,,3006,,,,,,,,
17191057,Nossum,63.724,11.258,,,3006,,,,,,,,
17191101,Nordmarka,63.727,11.270,,,3006,,,,,,,,
17191104,Levanger stasjon,63.745,11.300,,,3006,,,,,,,,
17191106,Røstadlia nedre,63.750,11.322,,,3006,,,,,,,,
17191110,Leira mottak,63.747,11.316,,,3006,,,,,,,,
17191111,Holm,63.734,11.397,,,3006,,,,,,,,
17191112,Skillstad,63.736,11.378,,,3006,,,,,,,,
17191113,Ner,63.736,11.349,,,3006,,,,,,,,
17191114,Nordgård,63.741,11.360,,,550,,,,,,,,
17191117,Floan,63.731,11.352,,,3006,,,,,,,,
17191119,Røstadlia øvre,63.751,11.335,,,3006,,,,,,,,
17191120,Skånesvegen,63.769,11.410,,,3006,,,,,,,,
17191121,Stene,63.763,11.403,,,3006,,,,,,,,
17191122,Vasstårnet,63.762,11.380,,,3006,,,,,,,,
17191123,Salthammer,63.756,11.424,,,3006,,,,,,,,
17191124,Haugskott,63.751,11.399,,,3006,,,,,,,,
17191125,Haugskottvegen,63.753,11.396,,,3006,,,,,,,,
17191126,Stubbe Levanger,63.715,11.326,,,3006,,,,,,,,
17191127,Sørholt,63.754,11.374,,,3006,,,,,,,,
17191128,Nord universitet Levanger,63.753,11.313,,,3006,,,,,,,,
17191130,Seterkorsen,63.753,11.361,,,3006,,,,,,,,
17191136,Nordbakk,63.736,11.361,,,3006,,,,,,,,
17191137,Alfnes,63.736,11.222,,,3006,,,,,,,,
17191138,Skjetnemark,63.752,11.215,,,3006,,,,,,,,
17191139,Håa,63.753,11.232,,,3006,,,,,,,,
17191140,Flatåsen,63.712,11.361,,,3006,,,,,,,,
17191141,Jevika,63.707,11.021,,,3006,,,,,,,,
17191142,Langås,63.672,11.082,,,3006,,,,,,,,
17191143,Skjesol,63.703,11.193,,,3006,,,,,,,,
17191144,Domus,63.744,11.297,,,3006,,,,,,,,
17191145,Bjørnang,63.673,11.239,,,3006,,,,,,,,
17191146,Levanger kirke,63.745,11.294,,,3006,,,,,,,,
17191147,Finnekorsen,63.663,11.223,,,3006,,,,,,,,
17191148,Staupslia hagesenter,63.748,11.285,,,3006,,,,,,,,
17191149,Bannmyrvegen,63.752,11.426,,,551,,,,,,,,
17191152,Joplassvegen,63.754,11.285,,,3006,,,,,,,,
17191153,Kalkovnan,63.758,11.280,,,3006,,,,,,,,
17191155,Friggs veg,63.756,11.275,,,3006,,,,,,,,
17191157,Brages veg,63.755,11.264,,,3006,,,,,,,,
17191158,Bakkegata,63.742,11.292,,,3006,,,,,,,,
17191159,Nesheim skole,63.751,11.261,,,3006,,,,,,,,
17191160,Gjemblekorsen,63.749,11.271,,,3006,,,,,,,,
17191161,Breidablikk,63.747,11.283,,,3006,,,,,,,,
17191163,Moan studentbolig,63.738,11.280,,,3006,,,,,,,,
17191164,Branesvegen,63.730,11.285,,,3006,,,,,,,,
17191166,Bringebærvegen,63.721,11.271,,,3006,,,,,,,,
17191167,Tyttebærvegen,63.720,11.273,,,3006,,,,,,,,
17191168,Kreklingvegen,63.722,11.278,,,3006,,,,,,,,
17191169,Høgberget snuplass,63.723,11.282,,,3006,,,,,,,,
17191186,Mulelia,63.760,11.405,,,551,,,,,,,,
17191187,Grønnlia,63.762,11.417,,,3006,,,,,,,,
17191188,Rinnleiret,63.765,11.438,,,551,,,,,,,,
17191189,Rinnan stasjon,63.760,11.441,,,3006,,,,,,,,
17191192,Roaldmarka,63.764,11.411,,,3006,,,,,,,,
17191194,Storborg,63.761,11.368,,,3006,,,,,,,,
17191197,Nordtun,63.756,11.387,,,3006,,,,,,,,
17191257,Slettbekken,63.616,11.281,,,3006,,,,,,,,
17191258,Hjelmstadbakk,63.605,11.271,,,3006,,,,,,,,
17191264,Granheim,63.696,11.281,,,3006,,,,,,,,
17191265,Stavlo østre,63.700,11.235,,,3006,,,,,,,,
17191266,Rendenkorsen,63.703,11.235,,,3006,,,,,,,,
17191267,Eggenkorsen,63.712,11.215,,,3006,,,,,,,,
17191270,Mule,63.757,11.390,,,3006,,,,,,,,
17191322,Øvre Erstad,63.780,11.074,,,3006,,,,,,,,
17191323,Erstad,63.584,11.009,,,3006,,,,,,,,
17191340,Bjørvik øvre,63.771,11.087,,,3006,,,,,,,,
17191365,Levanger ungdomsskole Røstad,63.751,11.310,,,3006,,,,,,,,
17191451,Lynmo,63.663,11.164,,,3006,,,,,,,,
17191482,Kulåskorsen,63.622,11.331,,,3006,,,,,,,,
17191640,Gravsvingen,63.714,11.205,,,3006,,,,,,,,
17191641,Åsen bensinstasjon,63.607,11.042,,,3006,,,,,,,,
17191642,Simons interiør,63.604,11.012,,,3006,,,,,,,,
17191643,Grendebakken,63.602,11.039,,,530,,,,,,,,
17191644,Augdal,63.590,11.005,,,3006,,,,,,,,
17191645,Åker vegdele,63.590,11.001,,,3006,,,,,,,,
17191646,Storsve,63.584,11.009,,,3006,,,,,,,,
17191647,Vudduaunet,63.580,11.001,,,3006,,,,,,,,
17191648,Hovehaug,63.614,11.068,,,3006,,,,,,,,
17191649,Hokling,63.606,11.090,,,3006,,,,,,,,
17191650,Husby,63.617,11.098,,,3006,,,,,,,,
17191651,Husby lille,63.622,11.105,,,3006,,,,,,,,
17191652,Hellem,63.601,10.987,,,3006,,,,,,,,
17191653,Hellemskorsen,63.602,10.994,,,3006,,,,,,,,
17191654,Brandalen,63.604,11.005,,,3006,,,,,,,,
17191655,Hopla,63.602,10.951,,,3006,,,,,,,,
17191656,Sunndalen snuplass,63.615,10.908,,,3006,,,,,,,,
17191657,Bergheimkorsen,63.595,10.970,,,3006,,,,,,,,
17191658,Vollkrysset,63.595,10.978,,,3006,,,,,,,,
17191659,Voll,63.595,10.978,,,3006,,,,,,,,
17191660,Tillerkleiva,63.592,10.982,,,3006,,,,,,,,
17191661,Tildra,63.591,10.988,,,3006,,,,,,,,
17191662,Brakstadbakken,63.590,10.960,,,3006,,,,,,,,
17191663,Solhaug,63.594,10.938,,,3006,,,,,,,,
17191664,Lobakken,63.593,10.916,,,3006,,,,,,,,
17191666,Skjesol,63.584,10.929,,,3006,,,,,,,,
17191667,Nesjø snuplass,63.578,10.938,,,3006,,,,,,,,
17191668,Åker snuplass,63.582,10.961,,,3006,,,,,,,,
17191672,Nonstad,63.643,11.071,,,3006,,,,,,,,
17191673,Nonstad ytre,63.646,11.073,,,3006,,,,,,,,
17191674,Hiberg,63.648,11.076,,,3006,,,,,,,,
17191675,Ronglan vegdele,63.663,11.111,,,3006,,,,,,,,
17191678,Holing,63.633,11.078,,,3006,,,,,,,,
17191679,Skjelstad,63.637,11.084,,,3006,,,,,,,,
17191680,Ringstad,63.644,11.097,,,3006,,,,,,,,
17191683,Laplassen vegdele,63.607,11.125,,,3006,,,,,,,,
17191684,Røstadvika,63.613,11.142,,,3006,,,,,,,,
17191686,Strømmen nedre,63.619,11.164,,,3006,,,,,,,,
17191687,Aspåsen,63.618,11.193,,,3006,,,,,,,,
17191688,Åsen barne- og ungdomsskole,63.611,11.050,,,3006,,,,,,,,
17191691,Barstad,63.807,11.206,,,3006,,,,,,,,
17191692,Nergårdshaugen,63.801,11.195,,,3006,,,,,,,,
17191693,Forberg,63.801,11.182,,,3006,,,,,,,,
17191696,Gammelbutikken,63.801,11.174,,,3006,,,,,,,,
17191697,Hokstad Ferjeleie,63.798,11.168,,,3006,,,,,,,,
17191698,Øvre,63.800,11.160,,,3006,,,,,,,,
17191699,Prestegården,63.801,11.148,,,3006,,,,,,,,
17191700,Overlandet,63.798,11.133,,,3006,,,,,,,,
17191701,Inner-Berg,63.796,11.134,,,3006,,,,,,,,
17191702,Kjølsvika,63.789,11.134,,,3006,,,,,,,,
17191703,Brenne,63.776,11.102,,,3006,,,,,,,,
17191704,Bjørvik nedre,63.768,11.085,,,3006,,,,,,,,
17191705,Jørstadsjøen,63.798,11.099,,,3006,,,,,,,,
17191706,Osa,63.794,11.080,,,3006,,,,,,,,
17191707,Jønvik,63.788,11.069,,,3006,,,,,,,,
17191708,Vesterhus,63.785,11.063,,,3006,,,,,,,,
17191710,Bergsøra,63.764,11.078,,,3006,,,,,,,,
17191711,Naust,63.761,11.059,,,3006,,,,,,,,
17191713,Ytterøy skole,63.770,11.051,,,3006,,,,,,,,
17191714,Røvik,63.766,11.045,,,3006,,,,,,,,
17191715,Holmen,63.780,11.109,,,573,,,,,,,,
17191800,Vuddu,63.577,10.991,,,528,,,,,,,,
17191802,Vordal,63.588,11.017,,,3006,,,,,,,,
17191803,Åsen E6,63.610,11.050,,,3006,,,,,,,,
17191808,Oldret,63.613,10.922,,,3006,,,,,,,,
17191809,Leangen,63.613,10.935,,,3006,,,,,,,,
17191811,Åsenfjord,63.600,10.972,,,3006,,,,,,,,
17191812,Undlien,63.579,10.913,,,3006,,,,,,,,
17191813,Brakstad vegdele,63.594,10.965,,,3006,,,,,,,,
17191860,Voll gård,63.679,11.188,,,3006,,,,,,,,
17191864,Skillbrigt,63.671,11.068,,,3006,,,,,,,,
17191865,Dahling,63.672,11.088,,,3006,,,,,,,,
17191866,Ronglansdalen,63.670,11.103,,,3006,,,,,,,,
17191867,Ronglan stasjon,63.666,11.113,,,3006,,,,,,,,
17191868,Tuv,63.675,11.126,,,3006,,,,,,,,
17191869,Skjervesmarka,63.676,11.144,,,3006,,,,,,,,
17191870,Skjerve,63.681,11.172,,,3006,,,,,,,,
17191871,Hofsdalen,63.689,11.184,,,3006,,,,,,,,
17191872,Strandkorsen,63.699,11.084,,,3006,,,,,,,,
17191873,Laberget,63.705,11.137,,,3006,,,,,,,,
17191874,Hottran,63.703,11.153,,,3006,,,,,,,,
17191875,Holte,63.683,11.122,,,3006,,,,,,,,
17191878,Kjølåskorsen,63.674,11.067,,,3006,,,,,,,,
17191881,Skille,63.688,11.226,,,3006,,,,,,,,
17191882,Luksuskorsen,63.694,11.221,,,3006,,,,,,,,
17191884,Småland,63.695,11.199,,,3006,,,,,,,,
17191885,Fiborgtangen,63.710,11.164,,,3006,,,,,,,,
17191886,Holåsen vest,63.701,11.173,,,3006,,,,,,,,
17191889,Skogn sentrum,63.705,11.191,,,3006,,,,,,,,
17191891,Bragstad,63.715,11.234,,,3006,,,,,,,,
17191892,Korsbakken,63.716,11.222,,,3006,,,,,,,,
17191893,Gråmyrbakken nord,63.719,11.245,,,3006,,,,,,,,
17191894,Gilstadsaga,63.720,11.225,,,3006,,,,,,,,
17191895,Alstadhaug kirke,63.723,11.225,,,3006,,,,,,,,
17191897,Vestrum,63.706,11.011,,,3006,,,,,,,,
17191898,Østhaugen,63.705,11.032,,,3006,,,,,,,,
17191899,Falstad øvre,63.702,11.035,,,3006,,,,,,,,
17191900,Ekne sentrum,63.695,11.045,,,3006,,,,,,,,
17191901,Bakkan,63.689,11.059,,,3006,,,,,,,,
17191902,Øra,63.679,11.055,,,3006,,,,,,,,
17191903,Bjørgum,63.696,11.063,,,3006,,,,,,,,
17191907,Svendsen,63.630,11.199,,,3006,,,,,,,,
17191908,Tangsvekorsen,63.629,11.180,,,3006,,,,,,,,
17191909,Gryte,63.637,11.183,,,3006,,,,,,,,
17191911,Sundlokorsen,63.651,11.187,,,3006,,,,,,,,
17191912,Hojem,63.656,11.199,,,3006,,,,,,,,
17191913,Kjesbukorsen,63.662,11.201,,,3006,,,,,,,,
17191914,Finne,63.662,11.217,,,3006,,,,,,,,
17191915,Byakorsen nedre,63.670,11.225,,,3006,,,,,,,,
17191916,Brenne,63.677,11.236,,,3006,,,,,,,,
17191917,Leinskorsen,63.683,11.239,,,3006,,,,,,,,
17191918,Snøplogbakken,63.647,11.238,,,3006,,,,,,,,
17191919,Svartåsen,63.654,11.238,,,3006,,,,,,,,
17191920,Hjemble,63.660,11.240,,,3006,,,,,,,,
17191921,Byakorsen øvre,63.669,11.233,,,3006,,,,,,,,
17191922,Lundsvoll,63.658,11.241,,,3006,,,,,,,,
17191927,Sjåstaddalen,63.632,11.296,,,3006,,,,,,,,
17191928,Gammelmeieriet,63.637,11.285,,,3006,,,,,,,,
17191929,Markabygda sentrum,63.637,11.274,,,3006,,,,,,,,
17191930,Flåa,63.640,11.258,,,3006,,,,,,,,
17191931,Langåsbakken,63.642,11.250,,,3006,,,,,,,,
17191932,Burheim,63.638,11.241,,,3006,,,,,,,,
17191933,Søraker,63.632,11.210,,,3006,,,,,,,,
17191937,Kårabakken,63.718,11.498,,,3006,,,,,,,,
17191938,Skogseth,63.725,11.494,,,3006,,,,,,,,
17191939,Gustadkorsen,63.737,11.487,,,3006,,,,,,,,
17191940,Kløvjan,63.737,11.482,,,3006,,,,,,,,
17191942,Okkenhaug skole,63.729,11.446,,,3006,,,,,,,,
17191943,Okkenhaugkleivan,63.729,11.438,,,3006,,,,,,,,
17191944,Friberg,63.730,11.428,,,3006,,,,,,,,
17191945,Munkrøstad,63.733,11.407,,,3006,,,,,,,,
17191949,Berg,63.720,11.544,,,3006,,,,,,,,
17191950,Mobekkmo,63.716,11.531,,,3006,,,,,,,,
17191951,Grendahl,63.716,11.516,,,3006,,,,,,,,
17191952,Vulusjøvegen,63.716,11.506,,,3006,,,,,,,,
17191953,Frol barneskole,63.745,11.321,,,3006,,,,,,,,
17191955,Munkebykorsen,63.725,11.369,,,3006,,,,,,,,
17191956,Munkeby,63.724,11.380,,,3006,,,,,,,,
17191957,Slåttsve,63.716,11.380,,,3006,,,,,,,,
17191958,Bergenget,63.714,11.365,,,3006,,,,,,,,
17191959,Fossen,63.714,11.360,,,3006,,,,,,,,
17191960,Langåsdammen,63.710,11.349,,,3006,,,,,,,,
17191961,Bjørås,63.713,11.334,,,3006,,,,,,,,
17191963,Matberg,63.721,11.314,,,3006,,,,,,,,
17191965,Halsan skole,63.724,11.310,,,3006,,,,,,,,
17191966,Halsankorsen,63.731,11.296,,,3006,,,,,,,,
17191967,Byborg,63.747,11.290,,,3006,,,,,,,,
17191968,Gilstadlia,63.711,11.250,,,3006,,,,,,,,
17191969,Skjerpingen,63.728,11.229,,,3006,,,,,,,,
17191970,Eideskorsen,63.732,11.232,,,3006,,,,,,,,
17191972,Bergvinan,63.752,11.256,,,3006,,,,,,,,
17191974,Reistadkorsen,63.720,11.461,,,3006,,,,,,,,
17191975,Sykehuset Levanger,63.741,11.289,,,550,,,,,,,,
17192113,Ner,63.736,11.349,,,3006,,,,,,,,
17192121,Stene,63.763,11.404,,,3006,,,,,,,,
17192133,Borgåskorsen,63.759,11.357,,,3006,,,,,,,,
17192135,Eideskorsen,63.732,11.232,,,3006,,,,,,,,
17192160,Gjemblekorsen,63.749,11.270,,,3006,,,,,,,,
17192645,Åker vegdele,63.590,11.001,,,3006,,,,,,,,
17192657,Bergheimkorsen,63.595,10.970,,,3006,,,,,,,,
17192658,Vollkrysset,63.595,10.978,,,3006,,,,,,,,
17192669,Hammer,63.625,11.067,,,3006,,,,,,,,
17192813,Brakstad vegdele,63.594,10.964,,,3006,,,,,,,,
17192892,Korsbakken,63.716,11.224,,,3006,,,,,,,,
17192911,Sundlokorsen,63.651,11.187,,,3006,,,,,,,,
17192917,Leinskorsen,63.683,11.239,,,3006,,,,,,,,
17210001,Bjørga,63.833,11.428,,,3006,,,,,,,,
17210016,Sogneprest Krogs veg,63.789,11.459,,,3006,,,,,,,,
17210027,Verdal fengsel,63.796,11.461,,,3006,,,,,,,,
17210035,Rogntun,63.799,11.465,,,3006,,,,,,,,
17210110,Skjørholmen,63.832,11.576,,,3006,,,,,,,,
17210111,Haukå,63.847,11.593,,,3006,,,,,,,,
17210116,Rinnbrua,63.767,11.456,,,3006,,,,,,,,
17210143,Ravlo snuplass,63.745,11.523,,,3006,,,,,,,,
17210144,Brauta,63.774,11.479,,,3006,,,,,,,,
17210145,Verdalsøra barneskole,63.800,11.485,,,3006,,,,,,,,
17210146,Minsås,63.813,11.504,,,3006,,,,,,,,
17210156,Hestegrei,63.822,11.495,,,3006,,,,,,,,
17210199,Valstadmoen,63.767,11.522,,,3006,,,,,,,,
17210200,Kålen,63.768,11.555,,,3006,,,,,,,,
17210203,Melbygraven,63.761,11.630,,,3006,,,,,,,,
17210205,Guddingstua,63.761,11.645,,,3006,,,,,,,,
17210206,Finnmyra,63.759,11.679,,,3006,,,,,,,,
17210207,Levring,63.753,11.696,,,3006,,,,,,,,
17210208,Steinsgropa,63.750,11.714,,,3006,,,,,,,,
17210209,Kvernmo vegdele,63.745,11.734,,,3006,,,,,,,,
17210211,Garnes skole,63.738,11.758,,,3006,,,,,,,,
17210213,Rotmoen,63.720,11.838,,,3006,,,,,,,,
17210217,Stormoen,63.686,11.951,,,3006,,,,,,,,
17210219,Sul,63.665,12.003,,,3006,,,,,,,,
17210221,Tollstasjonen,63.664,12.055,,,3006,,,,,,,,
17210224,Innsmoen,63.655,12.213,,,3006,,,,,,,,
17210227,Bunes,63.835,11.638,,,3006,,,,,,,,
17210228,Hofstad,63.841,11.658,,,3006,,,,,,,,
17210229,Aksnes,63.857,11.637,,,3006,,,,,,,,
17210230,Brannan,63.770,11.489,,,3006,,,,,,,,
17210232,Ørmelen,63.790,11.470,,,3006,,,,,,,,
17210234,Verdal stasjon,63.791,11.484,,,3006,,,,,,,,
17210237,By,63.774,11.505,,,3006,,,,,,,,
17210238,Sulkrysset,63.792,11.480,,,3006,,,,,,,,
17210241,Ydsedalen,63.808,11.473,,,3006,,,,,,,,
17210243,Lyng,63.777,11.582,,,3006,,,,,,,,
17210244,Haga,63.771,11.591,,,3006,,,,,,,,
17210245,Eklo,63.772,11.621,,,3006,,,,,,,,
17210247,Lein,63.813,11.534,,,3006,,,,,,,,
17210248,Lein,63.812,11.533,,,561,,,,,,,,
17210249,Mogrenda,63.785,11.598,,,3006,,,,,,,,
17210250,Landfall,63.774,11.656,,,3006,,,,,,,,
17210251,Volen,63.773,11.664,,,3006,,,,,,,,
17210253,Soltun,63.824,11.464,,,3006,,,,,,,,
17210254,Leirådal,63.784,11.667,,,3006,,,,,,,,
17210256,Holmenbrua,63.779,11.763,,,3006,,,,,,,,
17210257,Grunnan,63.784,11.804,,,3006,,,,,,,,
17210259,Ulvilla,63.796,11.816,,,3006,,,,,,,,
17210261,Holmlimarka,63.801,11.848,,,3006,,,,,,,,
17210263,Volden,63.821,11.900,,,3006,,,,,,,,
17210264,Kulsli,63.816,11.928,,,3006,,,,,,,,
17210266,Ørtugen,63.822,11.971,,,3006,,,,,,,,
17210269,Vestly,63.837,12.009,,,3006,,,,,,,,
17210270,Skjækerfossen,63.836,12.026,,,3006,,,,,,,,
17210291,Ness oppvekstsenter,63.761,11.614,,,3006,,,,,,,,
17210294,Fleskhus vegdele,63.822,11.452,,,3006,,,,,,,,
17210296,Trones,63.821,11.418,,,3006,,,,,,,,
17210319,Jøssås,63.758,11.726,,,3006,,,,,,,,
17210320,Kulstadvika,63.866,11.601,,,3006,,,,,,,,
17210321,Sandslia,63.822,11.526,,,3006,,,,,,,,
17210323,Lundskammen,63.838,11.661,,,3006,,,,,,,,
17210357,Aksnesenget,63.866,11.631,,,3006,,,,,,,,
17210358,Dalamarka,63.854,11.639,,,3006,,,,,,,,
17210359,Leksdal skole,63.846,11.647,,,3006,,,,,,,,
17210360,Verdal bo- og helsetun,63.795,11.496,,,3006,,,,,,,,
17210362,Verdal vgs.,63.795,11.503,,,3006,,,,,,,,
17210363,Kirkehaug,63.795,11.509,,,3006,,,,,,,,
17210365,Slottet,63.796,11.528,,,3006,,,,,,,,
17210366,Haug,63.795,11.517,,,3006,,,,,,,,
17210368,Teglverket,63.794,11.537,,,3006,,,,,,,,
17210370,Kjærhaugvegen,63.784,11.471,,,3006,,,,,,,,
17210371,Kjæran,63.782,11.472,,,3006,,,,,,,,
17210373,Verdalsøra ungdomsskole,63.800,11.482,,,3006,,,,,,,,
17210374,Ydsekorsen,63.812,11.467,,,3006,,,,,,,,
17210375,Kvistad,63.814,11.465,,,3006,,,,,,,,
17210376,Åkerhus,63.817,11.443,,,3006,,,,,,,,
17210377,Bårdshaugen,63.822,11.413,,,3006,,,,,,,,
17210378,Fleskhus,63.820,11.456,,,3006,,,,,,,,
17210379,Sørskaget,63.816,11.415,,,3006,,,,,,,,
17210380,Lein øst,63.813,11.544,,,3006,,,,,,,,
17210381,Forbregd nord,63.812,11.552,,,3006,,,,,,,,
17210383,Stiklestad skole,63.799,11.562,,,3006,,,,,,,,
17210384,Sørenget,63.791,11.566,,,3006,,,,,,,,
17210385,Prestmo,63.791,11.594,,,3006,,,,,,,,
17210386,Vaterholm,63.787,11.610,,,3006,,,,,,,,
17210387,Lunnan,63.780,11.608,,,3006,,,,,,,,
17210388,Hallem,63.809,11.579,,,3006,,,,,,,,
17210389,Tømmeråsen,63.817,11.627,,,3006,,,,,,,,
17210390,Flatås,63.820,11.632,,,3006,,,,,,,,
17210391,Ogstad,63.800,11.590,,,3006,,,,,,,,
17210392,Skjefte,63.792,11.640,,,3006,,,,,,,,
17210393,Fåra øvre,63.789,11.648,,,3006,,,,,,,,
17210394,Fåra nedre,63.786,11.652,,,3006,,,,,,,,
17210395,Aspheim,63.812,11.657,,,3006,,,,,,,,
17210396,Vuku,63.775,11.735,,,3006,,,,,,,,
17210397,Vuku skole,63.775,11.738,,,3006,,,,,,,,
17210398,Grunnenget,63.781,11.786,,,3006,,,,,,,,
17210399,Kårenget,63.792,11.812,,,3006,,,,,,,,
17210400,Holmlibrekken,63.798,11.824,,,3006,,,,,,,,
17210401,Bjørstadhøgda,63.815,11.870,,,3006,,,,,,,,
17210402,Bjørkhaugen,63.818,11.885,,,3006,,,,,,,,
17210403,Leirset,63.823,11.917,,,3006,,,,,,,,
17210404,Nonsetskogen,63.821,11.929,,,3006,,,,,,,,
17210405,Sør-Elnes,63.812,11.933,,,3006,,,,,,,,
17210406,Haugen,63.828,11.991,,,3006,,,,,,,,
17210407,Bergsgrav,63.772,11.470,,,3006,,,,,,,,
17210408,Stamphusmyra,63.773,11.481,,,3006,,,,,,,,
17210409,Norum,63.774,11.491,,,3006,,,,,,,,
17210410,Mellomby,63.773,11.509,,,3006,,,,,,,,
17210411,Nerby,63.771,11.517,,,3006,,,,,,,,
17210414,Leirfaldlia,63.767,11.526,,,3006,,,,,,,,
17210415,Sandnes,63.766,11.543,,,3006,,,,,,,,
17210416,Valstad,63.767,11.549,,,3006,,,,,,,,
17210419,Rossvoll,63.781,11.557,,,3006,,,,,,,,
17210420,Søraker,63.764,11.503,,,3006,,,,,,,,
17210421,Baglum,63.771,11.496,,,3006,,,,,,,,
17210422,Bergsveg,63.770,11.482,,,3006,,,,,,,,
17210423,Løkken,63.770,11.478,,,3006,,,,,,,,
17210424,Skomakervegen,63.770,11.474,,,3006,,,,,,,,
17210425,Vinne bensinstasjon,63.770,11.466,,,3006,,,,,,,,
17210429,Rindsem,63.760,11.454,,,3006,,,,,,,,
17210430,Heitlo,63.754,11.461,,,3006,,,,,,,,
17210431,Østerås,63.754,11.465,,,3006,,,,,,,,
17210432,Hallan østre,63.756,11.469,,,3006,,,,,,,,
17210433,Balhall,63.755,11.480,,,3006,,,,,,,,
17210434,Molberg,63.753,11.497,,,3006,,,,,,,,
17210435,Storbakken,63.748,11.474,,,3006,,,,,,,,
17210437,Nesskorsen,63.763,11.587,,,3006,,,,,,,,
17210438,Lysthaugen,63.761,11.623,,,3006,,,,,,,,
17210439,Oppem,63.760,11.659,,,3006,,,,,,,,
17210440,Stubskin,63.779,11.689,,,3006,,,,,,,,
17210441,Svegjardet,63.732,11.773,,,3006,,,,,,,,
17210443,Rampa,63.663,12.010,,,3006,,,,,,,,
17210444,Sulstua,63.662,12.025,,,3006,,,,,,,,
17210475,Tuset,63.879,11.621,,,3006,,,,,,,,
17210772,Hello,63.754,11.510,,,3006,,,,,,,,
17210817,Lund,63.839,11.657,,,3006,,,,,,,,
17210818,Nyheim,63.837,11.651,,,3006,,,,,,,,
17210819,Buvollen,63.837,11.644,,,3006,,,,,,,,
17210820,Busetvegen,63.830,11.639,,,3006,,,,,,,,
17210821,Binde,63.824,11.634,,,3006,,,,,,,,
17210823,Bergan,63.821,11.652,,,3006,,,,,,,,
17210824,Nygården,63.822,11.664,,,3006,,,,,,,,
17210825,Musumaunet,63.823,11.676,,,3006,,,,,,,,
17210826,Moan,63.817,11.682,,,3006,,,,,,,,
17210827,Sende,63.814,11.666,,,3006,,,,,,,,
17210828,Fiksehøgda,63.808,11.666,,,3006,,,,,,,,
17210829,Åsen,63.807,11.672,,,3006,,,,,,,,
17210830,Hammerbakken,63.807,11.554,,,3006,,,,,,,,
17210831,Kråg,63.772,11.609,,,3006,,,,,,,,
17210832,Haugan,63.813,11.867,,,3006,,,,,,,,
17210833,Elneshøgda,63.814,11.928,,,3006,,,,,,,,
17210834,Sørmo,63.814,11.952,,,3006,,,,,,,,
17210835,Trøen,63.818,11.963,,,3006,,,,,,,,
17210842,Aspås,63.848,11.649,,,3006,,,,,,,,
17210843,Jemstad,63.795,11.627,,,3006,,,,,,,,
17210844,Reppe,63.782,11.676,,,3006,,,,,,,,
17210845,Elverum,63.774,11.683,,,3006,,,,,,,,
17210847,Efskin,63.777,11.715,,,3006,,,,,,,,
17210850,Østnes,63.770,11.731,,,3006,,,,,,,,
17210858,Stene,63.752,11.717,,,3006,,,,,,,,
17210859,Stene nordre,63.756,11.724,,,3006,,,,,,,,
17210861,Stubbe,63.749,11.720,,,3006,,,,,,,,
17210863,Levring østre,63.751,11.702,,,3006,,,,,,,,
17210864,Moa,63.738,11.749,,,3006,,,,,,,,
17210865,Inna bru,63.731,11.776,,,3006,,,,,,,,
17210866,Kriken,63.725,11.806,,,3006,,,,,,,,
17210867,Øyan,63.768,11.557,,,3006,,,,,,,,
17210868,Ryan,63.768,11.560,,,3006,,,,,,,,
17210869,Leira,63.767,11.566,,,3006,,,,,,,,
17210870,Leirfallsaunet,63.766,11.570,,,3006,,,,,,,,
17210871,Lågness,63.765,11.573,,,3006,,,,,,,,
17210872,Ness,63.765,11.579,,,3006,,,,,,,,
17210874,Guddingsmoen,63.761,11.642,,,3006,,,,,,,,
17210875,Oppemsmoen,63.760,11.667,,,3006,,,,,,,,
17210876,Forbregd,63.810,11.553,,,3006,,,,,,,,
17210877,Eidet,63.775,11.692,,,3006,,,,,,,,
17210878,Lundskin,63.778,11.707,,,3006,,,,,,,,
17210879,Fætten,63.778,11.471,,,3006,,,,,,,,
17210880,Vaterholmen,63.708,11.878,,,3006,,,,,,,,
17210881,Helgåsen,63.820,12.098,,,3006,,,,,,,,
17211001,Bjørga,63.833,11.429,,,3006,,,,,,,,
17211029,Sagstuvegen,63.796,11.469,,,3006,,,,,,,,
17211110,Skjørholmen,63.832,11.575,,,3006,,,,,,,,
17211111,Haukå,63.847,11.593,,,3006,,,,,,,,
17211116,Rinnbrua,63.767,11.455,,,560,,,,,,,,
17211143,Ravlo snuplass,63.745,11.523,,,3006,,,,,,,,
17211144,Brauta,63.774,11.480,,,3006,,,,,,,,
17211145,Verdalsøra barneskole,63.800,11.485,,,3006,,,,,,,,
17211146,Minsås,63.813,11.504,,,3006,,,,,,,,
17211156,Hestegrei,63.822,11.495,,,3006,,,,,,,,
17211199,Valstadmoan,63.767,11.521,,,3006,,,,,,,,
17211200,Kålen,63.768,11.555,,,3006,,,,,,,,
17211203,Melbygraven,63.761,11.631,,,3006,,,,,,,,
17211205,Guddingstua,63.761,11.645,,,3006,,,,,,,,
17211206,Finnmyra,63.759,11.679,,,3006,,,,,,,,
17211207,Levring,63.753,11.696,,,3006,,,,,,,,
17211208,Steinsgropa,63.750,11.714,,,3006,,,,,,,,
17211209,Kvernmo vegdele,63.745,11.734,,,3006,,,,,,,,
17211210,Kvernmovegen,63.754,11.764,,,3006,,,,,,,,
17211211,Garnes skole,63.738,11.758,,,3006,,,,,,,,
17211213,Rotmoen,63.720,11.839,,,3006,,,,,,,,
17211217,Stormoen,63.686,11.951,,,3006,,,,,,,,
17211219,Sul,63.665,12.003,,,3006,,,,,,,,
17211221,Tollstasjonen,63.664,12.055,,,3006,,,,,,,,
17211224,Innsmoen,63.655,12.213,,,3006,,,,,,,,
17211226,Røsseng,63.842,11.687,,,3006,,,,,,,,
17211227,Brunes,63.835,11.638,,,3006,,,,,,,,
17211228,Hofstad,63.841,11.658,,,3006,,,,,,,,
17211229,Aksnes,63.857,11.636,,,3006,,,,,,,,
17211230,Brannan,63.770,11.489,,,3006,,,,,,,,
17211232,Ørmelen,63.790,11.470,,,3006,,,,,,,,
17211234,Verdal stasjon,63.791,11.484,,,3006,,,,,,,,
17211237,By,63.774,11.505,,,3006,,,,,,,,
17211238,Sulkrysset,63.792,11.479,,,3006,,,,,,,,
17211241,Ydsedalen,63.808,11.473,,,3006,,,,,,,,
17211243,Lyng,63.777,11.582,,,3006,,,,,,,,
17211244,Haga,63.771,11.591,,,3006,,,,,,,,
17211245,Eklo,63.773,11.621,,,3006,,,,,,,,
17211247,Lein,63.813,11.534,,,3006,,,,,,,,
17211249,Mogrenda,63.785,11.598,,,3006,,,,,,,,
17211250,Landfall,63.775,11.656,,,3006,,,,,,,,
17211251,Volen,63.773,11.663,,,3006,,,,,,,,
17211253,Soltun,63.824,11.464,,,3006,,,,,,,,
17211254,Leirådal,63.784,11.667,,,3006,,,,,,,,
17211256,Holmenbrua,63.779,11.763,,,3006,,,,,,,,
17211257,Grunnan,63.784,11.803,,,3006,,,,,,,,
17211259,Ulvilla,63.796,11.816,,,3006,,,,,,,,
17211261,Holmlimarka,63.801,11.848,,,3006,,,,,,,,
17211262,Skjørdalen,63.757,11.577,,,3006,,,,,,,,
17211263,Volden,63.821,11.900,,,3006,,,,,,,,
17211264,Kulsli,63.816,11.928,,,3006,,,,,,,,
17211266,Ørtugen,63.822,11.971,,,3006,,,,,,,,
17211268,Bjartan,63.831,12.001,,,3006,,,,,,,,
17211269,Vestly,63.837,12.009,,,3006,,,,,,,,
17211270,Skjækerfossen,63.836,12.026,,,3006,,,,,,,,
17211289,Vinne skole,63.773,11.490,,,3006,,,,,,,,
17211294,Fleskhus vegdele,63.822,11.452,,,3006,,,,,,,,
17211296,Trones,63.821,11.418,,,3006,,,,,,,,
17211319,Jøssås,63.758,11.726,,,3006,,,,,,,,
17211320,Kulstadvika,63.866,11.601,,,3006,,,,,,,,
17211357,Aksnesenget,63.866,11.631,,,3006,,,,,,,,
17211358,Dalamarka,63.853,11.639,,,3006,,,,,,,,
17211359,Leksdal skole,63.846,11.647,,,3006,,,,,,,,
17211360,Verdal bo- og helsetun,63.795,11.495,,,3006,,,,,,,,
17211362,Verdal vgs.,63.795,11.503,,,3006,,,,,,,,
17211363,Kirkehaug,63.795,11.508,,,3006,,,,,,,,
17211365,Slottet,63.796,11.528,,,3006,,,,,,,,
17211366,Haug,63.795,11.517,,,3006,,,,,,,,
17211368,Teglverket,63.794,11.536,,,3006,,,,,,,,
17211370,Kjærhaugvegen,63.784,11.470,,,3006,,,,,,,,
17211371,Kjæran,63.781,11.472,,,3006,,,,,,,,
17211373,Verdalsøra ungdomsskole,63.801,11.482,,,3006,,,,,,,,
17211374,Ydsekorsen,63.812,11.467,,,3006,,,,,,,,
17211375,Kvistad,63.814,11.465,,,3006,,,,,,,,
17211376,Åkerhus,63.817,11.443,,,3006,,,,,,,,
17211377,Bårdshaugen,63.822,11.413,,,3006,,,,,,,,
17211378,Fleskhus,63.820,11.456,,,3006,,,,,,,,
17211380,Lein øst,63.813,11.544,,,3006,,,,,,,,
17211381,Forbregd nord,63.812,11.552,,,3006,,,,,,,,
17211383,Stiklestad skole,63.799,11.562,,,3006,,,,,,,,
17211384,Sørenget,63.791,11.566,,,3006,,,,,,,,
17211385,Prestmo,63.791,11.594,,,3006,,,,,,,,
17211386,Vaterholm,63.787,11.610,,,3006,,,,,,,,
17211387,Lunnan,63.780,11.608,,,3006,,,,,,,,
17211388,Hallem,63.809,11.578,,,3006,,,,,,,,
17211389,Tømmeråsen,63.817,11.627,,,3006,,,,,,,,
17211390,Flatås,63.821,11.633,,,3006,,,,,,,,
17211391,Ogstad,63.800,11.591,,,3006,,,,,,,,
17211392,Skjefte,63.792,11.640,,,3006,,,,,,,,
17211393,Fåra øvre,63.789,11.648,,,3006,,,,,,,,
17211394,Fåra nedre,63.786,11.651,,,3006,,,,,,,,
17211395,Aspheim,63.812,11.657,,,3006,,,,,,,,
17211396,Vuku,63.775,11.735,,,3006,,,,,,,,
17211397,Vuku skole,63.775,11.738,,,3006,,,,,,,,
17211398,Grunnenget,63.781,11.785,,,3006,,,,,,,,
17211399,Kårenget,63.792,11.812,,,3006,,,,,,,,
17211400,Holmlibrekken,63.798,11.824,,,3006,,,,,,,,
17211401,Bjørstadhøgda,63.815,11.870,,,3006,,,,,,,,
17211402,Bjørkhaugen,63.818,11.885,,,3006,,,,,,,,
17211403,Leirset,63.823,11.917,,,3006,,,,,,,,
17211404,Nonsetskogen,63.821,11.929,,,3006,,,,,,,,
17211405,Sør-Elnes,63.812,11.933,,,3006,,,,,,,,
17211406,Haugen,63.828,11.991,,,3006,,,,,,,,
17211407,Bergsgrav,63.771,11.469,,,3006,,,,,,,,
17211408,Stamphusmyra,63.774,11.481,,,3006,,,,,,,,
17211409,Norum,63.774,11.491,,,3006,,,,,,,,
17211410,Mellomby,63.773,11.509,,,3006,,,,,,,,
17211411,Nerby,63.771,11.517,,,3006,,,,,,,,
17211412,Vinne,63.772,11.525,,,3006,,,,,,,,
17211413,Reinslia,63.762,11.517,,,3006,,,,,,,,
17211414,Leirfaldlia,63.767,11.526,,,3006,,,,,,,,
17211415,Sandnes,63.766,11.543,,,3006,,,,,,,,
17211416,Valstad,63.767,11.549,,,3006,,,,,,,,
17211418,Thingstad,63.780,11.552,,,3006,,,,,,,,
17211419,Rossvoll,63.781,11.557,,,3006,,,,,,,,
17211421,Baglum,63.771,11.496,,,3006,,,,,,,,
17211422,Bergsveg,63.770,11.482,,,3006,,,,,,,,
17211423,Løkken,63.770,11.478,,,3006,,,,,,,,
17211424,Skomakervegen,63.770,11.474,,,3006,,,,,,,,
17211425,Vinne bensinstasjon,63.769,11.464,,,3006,,,,,,,,
17211429,Rindsem,63.760,11.454,,,3006,,,,,,,,
17211430,Heitlo,63.754,11.461,,,3006,,,,,,,,
17211431,Østerås,63.754,11.465,,,3006,,,,,,,,
17211432,Hallan østre,63.756,11.469,,,3006,,,,,,,,
17211433,Balhall,63.755,11.480,,,3006,,,,,,,,
17211434,Molberg,63.753,11.497,,,3006,,,,,,,,
17211437,Nesskorsen,63.763,11.586,,,3006,,,,,,,,
17211438,Lysthaugen,63.761,11.622,,,3006,,,,,,,,
17211439,Oppem,63.760,11.660,,,3006,,,,,,,,
17211441,Svegjardet,63.732,11.773,,,3006,,,,,,,,
17211442,Inndalsåkeren,63.727,11.798,,,3006,,,,,,,,
17211444,Sulstua,63.662,12.025,,,3006,,,,,,,,
17211475,Tuset,63.879,11.620,,,3006,,,,,,,,
17211772,Hello,63.754,11.510,,,3006,,,,,,,,
17211815,Skrove,63.793,11.676,,,562,,,,,,,,
17211817,Lund,63.839,11.657,,,3006,,,,,,,,
17211818,Nyheim,63.837,11.651,,,3006,,,,,,,,
17211819,Buvollen,63.837,11.644,,,3006,,,,,,,,
17211820,Brusetvegen,63.830,11.639,,,3006,,,,,,,,
17211821,Binde,63.824,11.633,,,3006,,,,,,,,
17211823,Bergan,63.821,11.652,,,3006,,,,,,,,
17211824,Nygården,63.822,11.664,,,3006,,,,,,,,
17211825,Musumaunet,63.823,11.676,,,3006,,,,,,,,
17211828,Fiksehøgda,63.808,11.666,,,3006,,,,,,,,
17211829,Åsen,63.807,11.672,,,3006,,,,,,,,
17211830,Hammerbakken,63.807,11.554,,,3006,,,,,,,,
17211831,Kråg,63.772,11.609,,,3006,,,,,,,,
17211832,Haugan,63.813,11.867,,,3006,,,,,,,,
17211833,Elneshøgda,63.814,11.928,,,3006,,,,,,,,
17211834,Sørmo,63.814,11.952,,,3006,,,,,,,,
17211835,Trøen,63.818,11.962,,,3006,,,,,,,,
17211842,Aspås,63.848,11.649,,,3006,,,,,,,,
17211843,Jermstad,63.795,11.627,,,3006,,,,,,,,
17211844,Reppe,63.782,11.676,,,3006,,,,,,,,
17211845,Elverum,63.774,11.683,,,3006,,,,,,,,
17211847,Efskin,63.777,11.715,,,3006,,,,,,,,
17211850,Østnes,63.770,11.731,,,3006,,,,,,,,
17211858,Stene,63.752,11.717,,,3006,,,,,,,,
17211859,Stene nordre,63.756,11.724,,,3006,,,,,,,,
17211861,Stubbe,63.749,11.720,,,3006,,,,,,,,
17211863,Levring østre,63.751,11.702,,,3006,,,,,,,,
17211864,Moa,63.738,11.749,,,3006,,,,,,,,
17211865,Inna bru,63.731,11.776,,,3006,,,,,,,,
17211867,Øyan,63.768,11.557,,,3006,,,,,,,,
17211868,Ryan,63.768,11.560,,,3006,,,,,,,,
17211869,Leira,63.767,11.566,,,3006,,,,,,,,
17211870,Leirfallsaunet,63.766,11.570,,,3006,,,,,,,,
17211871,Lågness,63.766,11.573,,,3006,,,,,,,,
17211872,Ness,63.765,11.579,,,3006,,,,,,,,
17211874,Guddingsmoen,63.761,11.642,,,3006,,,,,,,,
17211875,Oppemsmoen,63.760,11.668,,,3006,,,,,,,,
17211877,Eidet,63.776,11.692,,,3006,,,,,,,,
17211878,Lundskin,63.778,11.707,,,3006,,,,,,,,
17211880,Vaterholmen,63.708,11.878,,,3006,,,,,,,,
17211881,Helgåsen,63.820,12.098,,,3006,,,,,,,,
17212253,Lundskin,63.778,11.707,,,3006,,,,,,,,
17212385,Prestmo,63.791,11.593,,,3006,,,,,,,,
17212395,Aspheim,63.813,11.657,,,3006,,,,,,,,
17240061,Olderet,64.006,11.191,,,3006,,,,,,,,
17240062,Vada indre,64.020,11.216,,,3006,,,,,,,,
17240063,Stranda,64.023,11.218,,,3006,,,,,,,,
17240064,Vikabukta,64.046,11.207,,,3006,,,,,,,,
17240065,Trøavegen,64.062,11.213,,,3006,,,,,,,,
17240066,Moan,64.054,11.134,,,3006,,,,,,,,
17240067,Rennemoen,64.057,11.147,,,3006,,,,,,,,
17240068,Ystmarka,64.061,11.163,,,3006,,,,,,,,
17240069,Bjørkan,64.070,11.215,,,3006,,,,,,,,
17240101,Folladal,64.048,11.106,,,3006,,,,,,,,
17240148,Follafoss kirke,63.986,11.114,,,3006,,,,,,,,
17240154,Øra,64.067,11.213,,,3006,,,,,,,,
17240159,Bjørga,63.976,11.085,,,3006,,,,,,,,
17240160,Torsveet,63.953,11.012,,,3006,,,,,,,,
17240161,Tunsøra,63.943,10.990,,,3006,,,,,,,,
17240162,Solem,63.920,10.944,,,3006,,,,,,,,
17240163,Hovabakken,63.916,10.937,,,3006,,,,,,,,
17240164,Skjelstad,63.910,10.930,,,3006,,,,,,,,
17240165,Sand,63.905,10.922,,,3006,,,,,,,,
17240166,Stavrum,63.884,10.856,,,3006,,,,,,,,
17240167,Verrastranda Øra,63.877,10.828,,,3006,,,,,,,,
17240168,Mollstrand,63.842,10.681,,,3006,,,,,,,,
17240169,Schei,63.825,10.643,,,3006,,,,,,,,
17240171,Tua,63.951,11.000,,,3006,,,,,,,,
17240189,Follafoss,63.986,11.108,,,3006,,,,,,,,
17240190,Kistevik,63.986,11.125,,,3006,,,,,,,,
17240191,Vandbakk,63.758,10.454,,,3006,,,,,,,,
17240204,Skevik,64.096,11.268,,,3006,,,,,,,,
17240205,Skolemarka,64.082,11.228,,,3006,,,,,,,,
17240206,Malm,64.075,11.224,,,3006,,,,,,,,
17240207,Bratreit,64.070,11.215,,,3006,,,,,,,,
17240334,Holden,64.052,11.053,,,3006,,,,,,,,
17240338,Sandbakken,64.066,11.211,,,3006,,,,,,,,
17240646,Vollset,63.871,10.798,,,3006,,,,,,,,
17240648,Mollan,63.849,10.709,,,3006,,,,,,,,
17240728,Verrabotn,63.802,10.581,,,3006,,,,,,,,
17240830,Stjerna,64.094,11.217,,,3006,,,,,,,,
17240831,Tverråsveien,64.096,11.241,,,3006,,,,,,,,
17240832,Kløyvaveien,64.081,11.236,,,3006,,,,,,,,
17240833,Ressemveien,64.078,11.231,,,3006,,,,,,,,
17240836,Holmvik,64.105,11.310,,,3006,,,,,,,,
17240837,Landsem,64.096,11.261,,,3006,,,,,,,,
17240838,Gjeilen,64.093,11.250,,,3006,,,,,,,,
17240839,Tverås,64.091,11.239,,,3006,,,,,,,,
17240841,Ressemåsen,64.090,11.233,,,3006,,,,,,,,
17240844,Kirkreit,64.053,11.208,,,3006,,,,,,,,
17240846,Ramberg,64.028,11.219,,,3006,,,,,,,,
17240847,Vada ytre,64.010,11.202,,,3006,,,,,,,,
17240848,Sagen,64.002,11.180,,,3006,,,,,,,,
17240853,Gjeitvika,63.982,11.099,,,3006,,,,,,,,
17240862,Sjømark,63.896,10.891,,,3006,,,,,,,,
17240864,Stranda skole,63.892,10.879,,,3006,,,,,,,,
17240879,Verrabotn skole,63.795,10.559,,,3006,,,,,,,,
17240883,Ørsjødal,63.773,10.486,,,3006,,,,,,,,
17241061,Olderet,64.005,11.191,,,3006,,,,,,,,
17241062,Vada indre,64.020,11.216,,,3006,,,,,,,,
17241063,Stranda,64.023,11.218,,,3006,,,,,,,,
17241064,Vikabukta,64.046,11.207,,,3006,,,,,,,,
17241065,Trøavegen,64.062,11.214,,,3006,,,,,,,,
17241066,Moan,64.054,11.134,,,3006,,,,,,,,
17241067,Rennemoen,64.057,11.147,,,3006,,,,,,,,
17241068,Ystmarka,64.061,11.164,,,3006,,,,,,,,
17241069,Bjørkan,64.070,11.215,,,3006,,,,,,,,
17241101,Folladal,64.048,11.106,,,3006,,,,,,,,
17241148,Follafoss kirke,63.986,11.114,,,3006,,,,,,,,
17241154,Øra,64.067,11.213,,,3006,,,,,,,,
17241159,Bjørga,63.976,11.085,,,3006,,,,,,,,
17241160,Torsveet,63.953,11.012,,,3006,,,,,,,,
17241161,Tunsøra,63.943,10.990,,,3006,,,,,,,,
17241162,Solem,63.920,10.944,,,3006,,,,,,,,
17241163,Hovabakken,63.916,10.937,,,3006,,,,,,,,
17241164,Skjelstad,63.910,10.930,,,3006,,,,,,,,
17241165,Sand,63.905,10.922,,,3006,,,,,,,,
17241166,Stavrum,63.884,10.856,,,3006,,,,,,,,
17241167,Verrastranda,63.877,10.828,,,3006,,,,,,,,
17241168,Mollstrand,63.842,10.681,,,3006,,,,,,,,
17241169,Schei,63.825,10.643,,,3006,,,,,,,,
17241171,Tua,63.951,11.000,,,3006,,,,,,,,
17241189,Follafoss,63.986,11.108,,,3006,,,,,,,,
17241190,Kistevik,63.986,11.125,,,3006,,,,,,,,
17241191,Vandbakk,63.760,10.456,,,3006,,,,,,,,
17241204,Skevik,64.096,11.268,,,3006,,,,,,,,
17241205,Skolemarka,64.082,11.228,,,3006,,,,,,,,
17241206,Malm,64.075,11.223,,,3006,,,,,,,,
17241207,Bratreit,64.070,11.216,,,3006,,,,,,,,
17241334,Holden,64.052,11.053,,,3006,,,,,,,,
17241646,Vollset,63.871,10.798,,,3006,,,,,,,,
17241648,Mollan,63.849,10.709,,,3006,,,,,,,,
17241728,Verrabotn,63.802,10.581,,,3006,,,,,,,,
17241830,Stjerna,64.094,11.217,,,3006,,,,,,,,
17241831,Tverråsveien,64.096,11.241,,,3006,,,,,,,,
17241832,Kløyvaveien,64.081,11.236,,,3006,,,,,,,,
17241833,Ressemveien,64.078,11.231,,,3006,,,,,,,,
17241836,Holmvik,64.105,11.310,,,3006,,,,,,,,
17241837,Landsem,64.095,11.261,,,3006,,,,,,,,
17241838,Gjeilen,64.093,11.250,,,3006,,,,,,,,
17241839,Tverås,64.091,11.239,,,3006,,,,,,,,
17241841,Ressemåsen,64.090,11.233,,,3006,,,,,,,,
17241844,Kirkreit,64.053,11.209,,,3006,,,,,,,,
17241846,Ramberg,64.028,11.219,,,3006,,,,,,,,
17241847,Vada ytre,64.010,11.203,,,3006,,,,,,,,
17241848,Sagen,64.002,11.180,,,3006,,,,,,,,
17241853,Gjeitvika,63.982,11.100,,,3006,,,,,,,,
17241862,Sjømark,63.896,10.891,,,3006,,,,,,,,
17241864,Strasnda skole,63.892,10.880,,,3006,,,,,,,,
17241879,Verrabotn skole,63.795,10.559,,,3006,,,,,,,,
17241883,Ørsjødal,63.773,10.486,,,3006,,,,,,,,
17250084,Bjørg,64.229,11.213,,,4001,,,,,,,,
17250280,Brustu,64.170,11.252,,,4001,,,,,,,,
17250297,Statland skole,64.497,11.133,,,4001,,,,,,,,
17250501,Alte,64.361,11.235,,,4001,,,,,,,,
17250502,Alteskaret,64.373,11.168,,,4001,,,,,,,,
17250503,Tømmernes,64.384,11.158,,,4001,,,,,,,,
17250504,Oksdøla,64.424,11.188,,,4001,,,,,,,,
17250505,Kilmoen,64.430,11.183,,,4001,,,,,,,,
17250506,Buvika,64.436,11.187,,,4001,,,,,,,,
17250507,Tøtdal,64.443,11.152,,,4001,,,,,,,,
17250508,Engesdal,64.429,11.077,,,4001,,,,,,,,
17250509,Gårdsætran,64.427,11.060,,,4001,,,,,,,,
17250533,Statlandvatnet,64.464,11.111,,,4001,,,,,,,,
17250534,Rønningen,64.488,11.135,,,4001,,,,,,,,
17250535,Statland,64.493,11.136,,,4001,,,,,,,,
17250536,Ledang,64.509,11.109,,,4001,,,,,,,,
17250537,Leirfjord,64.513,11.074,,,4001,,,,,,,,
17250538,Mergavika,64.530,11.075,,,4001,,,,,,,,
17250539,Økvika,64.534,11.077,,,4001,,,,,,,,
17250587,Korsen,64.188,11.227,,,4001,,,,,,,,
17250613,Vengstad,64.194,11.235,,,4001,,,,,,,,
17250614,Helbostad,64.197,11.245,,,4001,,,,,,,,
17250617,Elda nord,64.181,11.218,,,4001,,,,,,,,
17250618,Mølla,64.203,11.215,,,4001,,,,,,,,
17250625,Aune nord,64.157,11.276,,,3006,,,,,,,,
17250748,Aune,64.156,11.272,,,3006,,,,,,,,
17250749,Morkabrekka,64.162,11.265,,,3006,,,,,,,,
17250751,Elda,64.179,11.220,,,4001,,,,,,,,
17250752,Hanemo,64.183,11.220,,,4001,,,,,,,,
17250753,Berre,64.246,11.208,,,4001,,,,,,,,
17250754,Bøgset,64.210,11.215,,,4001,,,,,,,,
17250755,Namdalseid,64.224,11.223,,,4001,,,,,,,,
17250756,Bjørgan,64.238,11.211,,,4001,,,,,,,,
17250757,Fallet,64.243,11.210,,,4001,,,,,,,,
17250758,Fossli vegdele,64.261,11.197,,,4001,,,,,,,,
17250759,Årgård,64.275,11.193,,,4001,,,,,,,,
17250760,Langøra,64.289,11.197,,,4001,,,,,,,,
17250761,Lingen,64.297,11.208,,,4001,,,,,,,,
17250762,Sjøåsen,64.309,11.223,,,4001,,,,,,,,
17250763,Rødhammer,64.319,11.239,,,4001,,,,,,,,
17250764,Gryta,64.340,11.284,,,4001,,,,,,,,
17250765,Namdalseid skole,64.238,11.210,,,4001,,,,,,,,
17250784,Sve,64.441,11.155,,,4001,,,,,,,,
17250785,Engen,64.440,11.146,,,4001,,,,,,,,
17250786,Kleiva,64.327,11.221,,,4001,,,,,,,,
17250788,Lonmoen,64.298,11.210,,,4001,,,,,,,,
17250789,Melan,64.291,11.198,,,4001,,,,,,,,
17250792,Staksete,64.271,11.202,,,4001,,,,,,,,
17250793,Gropa,64.259,11.199,,,4001,,,,,,,,
17250796,Kaldal,64.255,11.268,,,4001,,,,,,,,
17250797,Brenna,64.256,11.294,,,4001,,,,,,,,
17250798,Kaldalmoen,64.254,11.317,,,4001,,,,,,,,
17250799,Moen,64.255,11.323,,,4001,,,,,,,,
17250800,Skatland,64.238,11.364,,,4001,,,,,,,,
17250801,Deråsbrenna,64.228,11.404,,,4001,,,,,,,,
17250803,Brørs,64.242,11.242,,,4001,,,,,,,,
17250804,Hundset,64.227,11.241,,,4001,,,,,,,,
17250805,Vangsmoen,64.221,11.226,,,4001,,,,,,,,
17250806,Holstadsve,64.196,11.216,,,4001,,,,,,,,
17250807,Hallåsmoen,64.192,11.257,,,4001,,,,,,,,
17250808,Nordsetter,64.175,11.264,,,4001,,,,,,,,
17250809,Grøtmo,64.173,11.237,,,4001,,,,,,,,
17250810,Vollen,64.166,11.259,,,3006,,,,,,,,
17250811,Morkmoen,64.167,11.280,,,3006,,,,,,,,
17251084,Bjørg,64.229,11.212,,,4001,,,,,,,,
17251280,Brustu,64.172,11.246,,,4001,,,,,,,,
17251501,Alte,64.361,11.235,,,4001,,,,,,,,
17251502,Alteskaret,64.373,11.168,,,4001,,,,,,,,
17251503,Tømmernes,64.384,11.158,,,4001,,,,,,,,
17251504,Oksdøla,64.424,11.188,,,4001,,,,,,,,
17251505,Kilmoen,64.430,11.183,,,4001,,,,,,,,
17251506,Buvika,64.436,11.187,,,4001,,,,,,,,
17251507,Tøtdal,64.443,11.152,,,4001,,,,,,,,
17251508,Engesdal,64.429,11.077,,,4001,,,,,,,,
17251509,Gårdsætran,64.427,11.060,,,4001,,,,,,,,
17251533,Statlandvatnet,64.464,11.110,,,4001,,,,,,,,
17251534,Rønningen,64.488,11.135,,,4001,,,,,,,,
17251535,Statland,64.494,11.136,,,4001,,,,,,,,
17251536,Ledang,64.509,11.109,,,4001,,,,,,,,
17251537,Leirfjord,64.513,11.074,,,4001,,,,,,,,
17251538,Mergavika,64.530,11.075,,,4001,,,,,,,,
17251539,Økvika,64.534,11.076,,,4001,,,,,,,,
17251540,Aune,64.537,11.072,,,4001,,,,,,,,
17251587,Korsen,64.189,11.227,,,4001,,,,,,,,
17251613,Vengstad,64.194,11.235,,,4001,,,,,,,,
17251614,Helbostad,64.197,11.245,,,4001,,,,,,,,
17251617,Elda nord,64.181,11.218,,,4001,,,,,,,,
17251618,Mølla,64.203,11.214,,,4001,,,,,,,,
17251625,Aune nord,64.157,11.276,,,3006,,,,,,,,
17251748,Aune,64.158,11.270,,,3006,,,,,,,,
17251749,Morkabrekka,64.163,11.262,,,3006,,,,,,,,
17251751,Elda,64.179,11.220,,,4001,,,,,,,,
17251752,Hanemo,64.183,11.220,,,4001,,,,,,,,
17251753,Berre,64.246,11.208,,,4001,,,,,,,,
17251754,Bøgset,64.210,11.215,,,4001,,,,,,,,
17251755,Namdalseid,64.223,11.222,,,4001,,,,,,,,
17251756,Bjørgan,64.239,11.211,,,4001,,,,,,,,
17251757,Fallet,64.243,11.210,,,4001,,,,,,,,
17251758,Fossli vegdele,64.261,11.197,,,4001,,,,,,,,
17251759,Årgård,64.275,11.193,,,4001,,,,,,,,
17251760,Langøra,64.289,11.196,,,4001,,,,,,,,
17251761,Lingen,64.297,11.208,,,4001,,,,,,,,
17251762,Sjøåsen,64.308,11.222,,,4001,,,,,,,,
17251763,Rødhammer,64.319,11.239,,,4001,,,,,,,,
17251764,Gryta,64.339,11.281,,,4001,,,,,,,,
17251784,Sve,64.441,11.155,,,4001,,,,,,,,
17251785,Engen,64.440,11.146,,,4001,,,,,,,,
17251786,Kleiva,64.327,11.221,,,4001,,,,,,,,
17251788,Lonmoen,64.299,11.210,,,4001,,,,,,,,
17251789,Melan,64.291,11.198,,,4001,,,,,,,,
17251792,Staksete,64.271,11.202,,,4001,,,,,,,,
17251793,Gropa,64.259,11.199,,,4001,,,,,,,,
17251796,Kaldal,64.255,11.268,,,4001,,,,,,,,
17251797,Brenna,64.256,11.294,,,4001,,,,,,,,
17251798,Kaldalmoen,64.254,11.317,,,4001,,,,,,,,
17251799,Moen,64.255,11.323,,,4001,,,,,,,,
17251800,Skatland,64.238,11.364,,,4001,,,,,,,,
17251801,Deråsbrenna,64.228,11.404,,,4001,,,,,,,,
17251803,Brørs,64.242,11.242,,,4001,,,,,,,,
17251804,Hundset,64.227,11.241,,,4001,,,,,,,,
17251805,Vangsmoen,64.220,11.226,,,4001,,,,,,,,
17251806,Holstadsve,64.196,11.216,,,4001,,,,,,,,
17251807,Hallåsmoen,64.192,11.257,,,4001,,,,,,,,
17251808,Nordsetter,64.175,11.264,,,4001,,,,,,,,
17251809,Grøtmo,64.173,11.237,,,4001,,,,,,,,
17251810,Vollen,64.166,11.258,,,3006,,,,,,,,
17251811,Morkmoen,64.167,11.280,,,3006,,,,,,,,
17251812,Fosslia,64.252,11.170,,,4001,,,,,,,,
17251814,Åsahøgda,64.220,11.222,,,4001,,,,,,,,
17252757,Fallet,64.243,11.210,,,4001,,,,,,,,
17360112,Sagfossen,64.165,12.400,,,4001,,,,,,,,
17360197,Korsvollan,64.298,12.338,,,4001,,,,,,,,
17360231,Finsås,64.209,12.227,,,4001,,,,,,,,
17360232,Ålneset,64.204,12.163,,,4001,,,,,,,,
17360233,Våg,64.231,12.354,,,4001,,,,,,,,
17360234,Horjem,64.266,12.343,,,4001,,,,,,,,
17360235,Semsøra,64.255,12.370,,,4001,,,,,,,,
17360241,Viosen,64.251,12.369,,,4001,,,,,,,,
17360242,Snåsa stasjon,64.246,12.381,,,4001,,,,,,,,
17360243,Hireita,64.241,12.354,,,4001,,,,,,,,
17360244,Vågskorsen,64.238,12.375,,,4001,,,,,,,,
17360245,Murbrekk,64.231,12.392,,,4001,,,,,,,,
17360248,Forberg,64.244,12.407,,,4001,,,,,,,,
17360249,Nagelhuskorsen,64.246,12.433,,,4001,,,,,,,,
17360250,Nagelhus øst,64.249,12.437,,,4001,,,,,,,,
17360251,Myrmoen,64.252,12.445,,,4001,,,,,,,,
17360252,Sørmoen,64.261,12.473,,,4001,,,,,,,,
17360253,Ryggvold øst,64.266,12.494,,,4001,,,,,,,,
17360254,Haugankorsen,64.267,12.499,,,4001,,,,,,,,
17360255,Husa,64.230,12.428,,,4001,,,,,,,,
17360256,Mona,64.239,12.451,,,4001,,,,,,,,
17360257,Eggen,64.238,12.457,,,4001,,,,,,,,
17360258,Aun,64.239,12.468,,,4001,,,,,,,,
17360259,Kolven,64.239,12.478,,,4001,,,,,,,,
17360260,Skavlan,64.241,12.491,,,4001,,,,,,,,
17360261,Engum,64.242,12.510,,,4001,,,,,,,,
17360262,Gåsmoen,64.256,12.536,,,4001,,,,,,,,
17360263,Ålmo,64.263,12.556,,,4001,,,,,,,,
17360264,Mollan,64.261,12.567,,,4001,,,,,,,,
17360265,Kleiv,64.196,12.269,,,4001,,,,,,,,
17360266,Kleivmoen,64.194,12.279,,,4001,,,,,,,,
17360267,Undsetlia,64.192,12.300,,,4001,,,,,,,,
17360268,Gifstad,64.187,12.313,,,4001,,,,,,,,
17360269,Kjenstad kryss,64.186,12.327,,,4001,,,,,,,,
17360270,Åsa,64.157,12.446,,,4001,,,,,,,,
17360271,Kjevli,64.159,12.469,,,4001,,,,,,,,
17360272,Steinkjer,64.164,12.490,,,4001,,,,,,,,
17360273,Agle vest,64.274,12.517,,,4001,,,,,,,,
17360274,Agleåsen,64.271,12.506,,,4001,,,,,,,,
17360275,Gravbrøt,64.274,12.546,,,4001,,,,,,,,
17360276,Sagmoen,64.272,12.555,,,4001,,,,,,,,
17360277,Rennset,64.244,12.170,,,4001,,,,,,,,
17360278,Mollankorsen,64.268,12.282,,,4001,,,,,,,,
17360279,Moum,64.274,12.303,,,4001,,,,,,,,
17360294,Tjennaråsen,64.336,12.337,,,4001,,,,,,,,
17360326,Holsing,64.201,12.336,,,4001,,,,,,,,
17360428,Oldernesset vegdele,64.196,12.194,,,4001,,,,,,,,
17360577,Breide,64.201,12.258,,,4001,,,,,,,,
17360579,Sveberg,64.207,12.282,,,4001,,,,,,,,
17360580,Mediås,64.210,12.292,,,4001,,,,,,,,
17360581,Kjenstad,64.184,12.335,,,4001,,,,,,,,
17360588,Brønstad,64.229,12.306,,,4001,,,,,,,,
17360589,Gran Snåsa,64.232,12.316,,,4001,,,,,,,,
17360590,Granbrua,64.234,12.326,,,4001,,,,,,,,
17360591,Sannesmo,64.238,12.336,,,4001,,,,,,,,
17360592,Vinje,64.243,12.361,,,4001,,,,,,,,
17360597,Berg,64.245,12.422,,,4001,,,,,,,,
17360599,Bomo,64.258,12.460,,,4001,,,,,,,,
17360601,Ryggvold vest,64.265,12.486,,,4001,,,,,,,,
17360605,Agle øst,64.277,12.528,,,4001,,,,,,,,
17360657,Hammeraunan,64.208,12.024,,,4001,,,,,,,,
17360658,Hammer,64.212,12.038,,,4001,,,,,,,,
17360661,Nordheim,64.241,12.154,,,4001,,,,,,,,
17360664,Vegset,64.263,12.269,,,4001,,,,,,,,
17360665,Bruvoll,64.272,12.299,,,4001,,,,,,,,
17360947,Telnesset,64.195,12.193,,,4001,,,,,,,,
17360948,Strindmoen,64.175,12.087,,,4001,,,,,,,,
17360949,Snåsa skole,64.247,12.364,,,4001,,,,,,,,
17360950,Nagelhus vest,64.245,12.425,,,4001,,,,,,,,
17361112,Sagfossen,64.165,12.400,,,4001,,,,,,,,
17361197,Korsvollan,64.298,12.338,,,4001,,,,,,,,
17361234,Horjem,64.265,12.343,,,4001,,,,,,,,
17361235,Semsøra,64.255,12.370,,,4001,,,,,,,,
17361241,Viosen,64.251,12.368,,,4001,,,,,,,,
17361242,Snåsa stasjon,64.245,12.380,,,4001,,,,,,,,
17361243,Hireita,64.241,12.352,,,4001,,,,,,,,
17361244,Vågskorsen,64.238,12.376,,,4001,,,,,,,,
17361245,Murbrekk,64.232,12.392,,,4001,,,,,,,,
17361248,Forberg,64.244,12.407,,,4001,,,,,,,,
17361249,Nagelhuskorsen,64.246,12.433,,,4001,,,,,,,,
17361250,Nagelhus øst,64.249,12.437,,,4001,,,,,,,,
17361251,Myrmoen,64.252,12.445,,,4001,,,,,,,,
17361252,Sørmoen,64.261,12.473,,,4001,,,,,,,,
17361253,Ryggvold øst,64.266,12.494,,,4001,,,,,,,,
17361254,Haugankorsen,64.267,12.499,,,4001,,,,,,,,
17361255,Husa,64.230,12.428,,,4001,,,,,,,,
17361256,Mona,64.239,12.452,,,4001,,,,,,,,
17361257,Eggen,64.238,12.457,,,4001,,,,,,,,
17361258,Aun,64.239,12.468,,,4001,,,,,,,,
17361259,Kolven,64.239,12.478,,,4001,,,,,,,,
17361260,Skavlan,64.241,12.491,,,4001,,,,,,,,
17361261,Engum,64.242,12.510,,,4001,,,,,,,,
17361262,Gåsmoen,64.256,12.536,,,4001,,,,,,,,
17361263,Ålmo,64.263,12.556,,,4001,,,,,,,,
17361264,Mollan,64.261,12.567,,,4001,,,,,,,,
17361265,Kleiv,64.196,12.269,,,4001,,,,,,,,
17361266,Kleivmoen,64.194,12.280,,,4001,,,,,,,,
17361267,Undsetlia,64.192,12.300,,,4001,,,,,,,,
17361268,Gifstad,64.188,12.313,,,4001,,,,,,,,
17361269,Kjenstad kryss,64.186,12.327,,,4001,,,,,,,,
17361270,Åsa,64.157,12.446,,,4001,,,,,,,,
17361271,Kjevli,64.159,12.469,,,4001,,,,,,,,
17361272,Steinkjer,64.164,12.490,,,4001,,,,,,,,
17361273,Agle vest,64.274,12.517,,,4001,,,,,,,,
17361274,Agleåsen,64.271,12.506,,,4001,,,,,,,,
17361275,Gravbrøt,64.274,12.546,,,4001,,,,,,,,
17361276,Sagmoen,64.272,12.555,,,4001,,,,,,,,
17361277,Rennset,64.244,12.170,,,4001,,,,,,,,
17361278,Mollankorsen,64.268,12.282,,,4001,,,,,,,,
17361279,Moum,64.274,12.302,,,4001,,,,,,,,
17361294,Tjennaråsen,64.336,12.337,,,4001,,,,,,,,
17361326,Holsing,64.201,12.336,,,4001,,,,,,,,
17361428,Oldernesset vegdele,64.196,12.194,,,4001,,,,,,,,
17361577,Breide,64.201,12.258,,,4001,,,,,,,,
17361579,Sveberg,64.207,12.282,,,4001,,,,,,,,
17361580,Mediås,64.210,12.292,,,4001,,,,,,,,
17361581,Kjenstad,64.184,12.336,,,4001,,,,,,,,
17361588,Brønstad,64.229,12.306,,,4001,,,,,,,,
17361589,Gran,64.232,12.316,,,4001,,,,,,,,
17361590,Granbrua,64.234,12.325,,,4001,,,,,,,,
17361591,Sannesmo,64.238,12.336,,,4001,,,,,,,,
17361592,Vinje,64.243,12.360,,,4001,,,,,,,,
17361597,Berg,64.245,12.422,,,4001,,,,,,,,
17361599,Bomo,64.258,12.460,,,4001,,,,,,,,
17361601,Ryggvold vest,64.265,12.486,,,4001,,,,,,,,
17361605,Agle øst,64.277,12.528,,,4001,,,,,,,,
17361657,Hammeraunan,64.208,12.024,,,4001,,,,,,,,
17361658,Hammer,64.212,12.038,,,4001,,,,,,,,
17361661,Nordheim,64.241,12.154,,,4001,,,,,,,,
17361664,Vegset,64.263,12.269,,,4001,,,,,,,,
17361665,Bruvoll,64.272,12.299,,,4001,,,,,,,,
17361947,Telnesset,64.195,12.193,,,4001,,,,,,,,
17361948,Strindmoen,64.175,12.087,,,4001,,,,,,,,
17361949,Snåsa skole,64.247,12.364,,,4001,,,,,,,,
17361950,Nagelhus vest,64.246,12.425,,,4001,,,,,,,,
17380000,Gammelbutikken Totland,64.248,13.747,,,5001,,,,,,,,
17380003,Solstad,64.249,13.740,,,5001,,,,,,,,
17380005,Gåsbakk,64.242,13.765,,,5001,,,,,,,,
17380006,Valan,64.227,13.812,,,5001,,,,,,,,
17380019,Gosen,64.486,13.186,,,5001,,,,,,,,
17380020,Sandmoen,64.480,13.306,,,5001,,,,,,,,
17380021,Skjelbred,64.490,13.422,,,5001,,,,,,,,
17380023,Støvika,64.470,13.541,,,5001,,,,,,,,
17380024,Sandvika,64.466,13.585,,,5001,,,,,,,,
17380025,Eide,64.441,13.628,,,5001,,,,,,,,
17380026,Eidesmoen,64.447,13.655,,,5001,,,,,,,,
17380034,Holand,64.445,13.701,,,5001,,,,,,,,
17380040,Løvsjølia,64.396,13.664,,,5001,,,,,,,,
17380041,Aunet,64.325,13.600,,,5001,,,,,,,,
17380042,Aspnes,64.289,13.650,,,5001,,,,,,,,
17380043,Ulland,64.276,13.673,,,5001,,,,,,,,
17380044,Totland,64.257,13.715,,,5001,,,,,,,,
17380045,Devika,64.245,13.758,,,5001,,,,,,,,
17380046,Høgsneset,64.229,13.803,,,5001,,,,,,,,
17380047,Mebygda,64.224,13.831,,,5001,,,,,,,,
17380048,Straumsmoen,64.187,13.834,,,5001,,,,,,,,
17380049,Jule,64.169,13.852,,,5001,,,,,,,,
17380050,Skåle,64.165,13.867,,,5001,,,,,,,,
17380051,Østborg,64.109,13.980,,,5001,,,,,,,,
17380053,Sandneset,64.101,14.007,,,5001,,,,,,,,
17380054,Bakken,64.158,14.053,,,5001,,,,,,,,
17380057,Inderdal,64.183,13.730,,,5001,,,,,,,,
17380106,Lindahl,64.562,13.709,,,5001,,,,,,,,
17380413,Prestgardsætra,64.472,13.626,,,5001,,,,,,,,
17380453,Kveeidet,64.488,13.953,,,5001,,,,,,,,
17380457,Murumoen,64.484,14.024,,,5001,,,,,,,,
17380472,Vangen,64.454,13.835,,,5001,,,,,,,,
17380473,Øybekkstua,64.438,13.774,,,5001,,,,,,,,
17380611,Sørli skole,64.223,13.836,,,5001,,,,,,,,
17380700,Berglia,64.212,13.586,,,5001,,,,,,,,
17380919,Kvemo vestre,64.509,13.819,,,5001,,,,,,,,
17380920,Kvemotangen,64.508,13.811,,,5001,,,,,,,,
17380921,Gran,64.477,13.517,,,5001,,,,,,,,
17380922,Storenga,64.486,13.497,,,5001,,,,,,,,
17380923,Lilleng,64.487,13.493,,,5001,,,,,,,,
17380924,Rønningen,64.489,13.462,,,5001,,,,,,,,
17380925,Småvollan,64.490,13.434,,,5001,,,,,,,,
17380927,Fagerstrand,64.499,13.371,,,5001,,,,,,,,
17380930,Stortangen skole,64.459,13.595,,,5001,,,,,,,,
17380931,Strandli,64.466,13.573,,,5001,,,,,,,,
17380932,Rabben,64.468,13.550,,,5001,,,,,,,,
17380934,Lindal,64.451,13.604,,,5001,,,,,,,,
17380935,Smevika,64.447,13.610,,,5001,,,,,,,,
17380939,Movik østre,64.443,13.722,,,5001,,,,,,,,
17380940,Movika,64.444,13.719,,,5001,,,,,,,,
17380941,Leirbekk,64.446,13.677,,,5001,,,,,,,,
17380942,Trevik,64.447,13.669,,,5001,,,,,,,,
17380949,Tunnsjø østre,64.681,13.653,,,5001,,,,,,,,
17380951,Skogen,64.635,13.696,,,5001,,,,,,,,
17380952,Elibo,64.623,13.690,,,5001,,,,,,,,
17380956,Tunnsjø,64.644,13.700,,,5001,,,,,,,,
17380957,Vollheim,64.650,13.676,,,5001,,,,,,,,
17380960,Kvelibua,64.525,13.694,,,5001,,,,,,,,
17380987,Karstein,64.174,13.841,,,5001,,,,,,,,
17380989,Juleshaug,64.166,13.865,,,5001,,,,,,,,
17380991,Veglo,64.161,13.877,,,5001,,,,,,,,
17380993,Bakkeskrysset,64.145,13.897,,,5001,,,,,,,,
17380996,Rengen snuplass,64.095,14.038,,,5001,,,,,,,,
17380997,Myrmosvingen,64.271,13.683,,,5001,,,,,,,,
17380999,Platten,64.291,13.643,,,5001,,,,,,,,
17381000,Gammelbutikken Totland,64.248,13.747,,,5001,,,,,,,,
17381001,Låkke,64.284,13.640,,,5001,,,,,,,,
17381003,Solstad,64.249,13.740,,,5001,,,,,,,,
17381005,Gåsbakk,64.242,13.766,,,5001,,,,,,,,
17381006,Valan,64.227,13.812,,,5001,,,,,,,,
17381019,Gosen,64.487,13.186,,,5001,,,,,,,,
17381020,Sandmoen,64.481,13.305,,,5001,,,,,,,,
17381021,Skjelbred,64.490,13.422,,,5001,,,,,,,,
17381023,Støvika,64.470,13.541,,,5001,,,,,,,,
17381024,Sandvika,64.466,13.585,,,5001,,,,,,,,
17381025,Eide,64.441,13.627,,,5001,,,,,,,,
17381026,Eidesmoen,64.447,13.655,,,5001,,,,,,,,
17381034,Holand,64.445,13.701,,,5001,,,,,,,,
17381040,Løvsjølia,64.396,13.664,,,5001,,,,,,,,
17381041,Aunet,64.325,13.600,,,5001,,,,,,,,
17381042,Aspnes,64.289,13.650,,,5001,,,,,,,,
17381043,Ulland,64.276,13.674,,,5001,,,,,,,,
17381045,Devika,64.245,13.758,,,5001,,,,,,,,
17381046,Høgsneset,64.229,13.803,,,5001,,,,,,,,
17381047,Mebygda,64.224,13.831,,,5001,,,,,,,,
17381048,Straumsmoen,64.187,13.835,,,5001,,,,,,,,
17381049,Jule,64.169,13.852,,,5001,,,,,,,,
17381050,Skåle,64.165,13.868,,,5001,,,,,,,,
17381051,Østborg,64.109,13.980,,,5001,,,,,,,,
17381053,Sandneset,64.101,14.007,,,5001,,,,,,,,
17381054,Bakken,64.158,14.053,,,5001,,,,,,,,
17381057,Inderdal,64.183,13.730,,,5001,,,,,,,,
17381106,Lindahl,64.562,13.708,,,5001,,,,,,,,
17381328,Totsås,64.458,13.463,,,5001,,,,,,,,
17381413,Prestegardsætra,64.472,13.626,,,5001,,,,,,,,
17381453,Kveeidet,64.488,13.952,,,5001,,,,,,,,
17381457,Murumoen,64.484,14.024,,,5001,,,,,,,,
17381472,Vangen,64.454,13.834,,,5001,,,,,,,,
17381473,Øybekkstua,64.438,13.774,,,5001,,,,,,,,
17381611,Sørli skole,64.223,13.836,,,5001,,,,,,,,
17381700,Berglia,64.212,13.585,,,5001,,,,,,,,
17381919,Kvemo vestre,64.509,13.819,,,5001,,,,,,,,
17381920,Kvemotangen,64.508,13.811,,,5001,,,,,,,,
17381921,Gran,64.477,13.517,,,5001,,,,,,,,
17381922,Storenga,64.486,13.497,,,5001,,,,,,,,
17381923,Lilleng,64.487,13.493,,,5001,,,,,,,,
17381924,Rønningen,64.489,13.462,,,5001,,,,,,,,
17381925,Småvollan,64.490,13.434,,,5001,,,,,,,,
17381927,Fagerstrand,64.499,13.371,,,5001,,,,,,,,
17381930,Stortangen skole,64.460,13.596,,,5001,,,,,,,,
17381931,Strandli,64.466,13.573,,,5001,,,,,,,,
17381932,Rabben,64.468,13.550,,,5001,,,,,,,,
17381934,Lindal,64.451,13.604,,,5001,,,,,,,,
17381935,Smevika,64.446,13.611,,,5001,,,,,,,,
17381937,Åsnes,64.435,13.462,,,5001,,,,,,,,
17381939,Movik østre,64.443,13.722,,,5001,,,,,,,,
17381940,Movika,64.444,13.719,,,5001,,,,,,,,
17381941,Leirbekk,64.446,13.677,,,5001,,,,,,,,
17381942,Trevik,64.447,13.669,,,5001,,,,,,,,
17381949,Tunnsjø østre,64.681,13.653,,,5001,,,,,,,,
17381951,Skogen,64.635,13.696,,,5001,,,,,,,,
17381952,Elibo,64.623,13.690,,,5001,,,,,,,,
17381956,Tunnsjø,64.644,13.699,,,5001,,,,,,,,
17381957,Vollheim,64.650,13.676,,,5001,,,,,,,,
17381960,Kvelibua,64.525,13.694,,,5001,,,,,,,,
17381987,Karstein,64.174,13.842,,,5001,,,,,,,,
17381989,Juleshaug,64.167,13.865,,,5001,,,,,,,,
17381991,Veglo,64.161,13.877,,,5001,,,,,,,,
17381993,Bakkeskrysset,64.145,13.897,,,5001,,,,,,,,
17381996,Rengen snuplass,64.095,14.038,,,5001,,,,,,,,
17381997,Myrmosvingen,64.271,13.683,,,5001,,,,,,,,
17381999,Platten,64.291,13.643,,,5001,,,,,,,,
17382025,Eide,64.441,13.627,,,5001,,,,,,,,
17390060,Nyvika,64.830,13.613,,,5001,,,,,,,,
17390137,Sætermo,64.767,13.429,,,5001,,,,,,,,
17390207,Stallvika,64.659,13.180,,,5001,,,,,,,,
17390208,Nyheim,64.664,13.165,,,5001,,,,,,,,
17390209,Hausvika,64.715,13.220,,,5001,,,,,,,,
17390210,Mykkelmoen,64.730,13.252,,,5001,,,,,,,,
17390211,Mykkelvika,64.738,13.317,,,5001,,,,,,,,
17390212,Holmmo,64.751,13.357,,,5001,,,,,,,,
17390213,Tunnsjørøyrvik,64.794,13.380,,,5001,,,,,,,,
17390214,Gjersvika,64.857,13.423,,,5001,,,,,,,,
17390215,Røyrvik,64.883,13.563,,,5001,,,,,,,,
17390305,Røyrvik barne- og ungdomsskole,64.883,13.561,,,5001,,,,,,,,
17390454,Vektarlia,64.912,13.574,,,5001,,,,,,,,
17390455,Kirkekrysset,64.886,13.556,,,5001,,,,,,,,
17390456,Namsvatn,64.989,13.581,,,5001,,,,,,,,
17390671,Bjørkvatnet,64.859,13.331,,,5001,,,,,,,,
17391060,Nyvika,64.830,13.613,,,5001,,,,,,,,
17391137,Sætermo,64.767,13.429,,,5001,,,,,,,,
17391207,Stallvika,64.659,13.180,,,5001,,,,,,,,
17391208,Nyheim,64.664,13.165,,,5001,,,,,,,,
17391209,Hausvika,64.715,13.219,,,5001,,,,,,,,
17391210,Mykkelmoen,64.730,13.252,,,5001,,,,,,,,
17391211,Mykkelvika,64.739,13.316,,,5001,,,,,,,,
17391212,Holmmo,64.751,13.357,,,5001,,,,,,,,
17391213,Tunnsjørøyrvik,64.794,13.379,,,5001,,,,,,,,
17391214,Gjersvika,64.857,13.423,,,5001,,,,,,,,
17391215,Røyrvik,64.883,13.562,,,5001,,,,,,,,
17391454,Vektarlia,64.912,13.574,,,5001,,,,,,,,
17391455,Kirkekrysset,64.886,13.556,,,5001,,,,,,,,
17391456,Namsvatn,64.989,13.581,,,5001,,,,,,,,
17391671,Bjørkvatnet,64.859,13.331,,,5001,,,,,,,,
17400008,Vang,65.010,13.253,,,5001,,,,,,,,
17400109,Aune,64.971,13.217,,,5001,,,,,,,,
17400120,Tunnsjøelv,64.713,12.796,,,5001,,,,,,,,
17400121,Lindmoen,64.795,12.924,,,5001,,,,,,,,
17400122,Kjelmyrfossen,64.831,12.988,,,5001,,,,,,,,
17400123,Brekkvasselv,64.844,13.008,,,5001,,,,,,,,
17400126,Steinfjellvegen,64.874,13.209,,,5001,,,,,,,,
17400127,Bjørhusdal vegdele,64.915,13.089,,,5001,,,,,,,,
17400128,Namsskogan,64.928,13.159,,,5001,,,,,,,,
17400170,Finnvolldalen vegdele,64.850,13.030,,,5001,,,,,,,,
17400202,Tunnsjødal vegdele,64.690,12.799,,,5001,,,,,,,,
17400206,Skorovatn,64.643,13.113,,,5001,,,,,,,,
17400324,Namsskogan statoil,64.931,13.162,,,5001,,,,,,,,
17400346,Trones Trones,64.748,12.855,,,5001,,,,,,,,
17400350,Trones skole,64.739,12.843,,,5001,,,,,,,,
17400352,Grøndalen,64.666,12.957,,,5001,,,,,,,,
17400372,Namsskogan skole,64.925,13.161,,,5001,,,,,,,,
17400447,Heimly,64.695,12.763,,,5001,,,,,,,,
17400448,Kjelmoåsen,64.679,12.828,,,5001,,,,,,,,
17400452,Breifossen,64.848,13.022,,,5001,,,,,,,,
17400891,Finnvollen kryss,64.876,13.133,,,5001,,,,,,,,
17401008,Vang,65.010,13.253,,,5001,,,,,,,,
17401108,Bjørhusdal,64.918,13.079,,,5001,,,,,,,,
17401109,Aune,64.971,13.217,,,5001,,,,,,,,
17401120,Tunnsjøelv,64.713,12.796,,,5001,,,,,,,,
17401121,Lindmoen,64.795,12.924,,,5001,,,,,,,,
17401122,Kjellmyrfossen,64.831,12.988,,,5001,,,,,,,,
17401123,Brekkvasselv,64.844,13.008,,,5001,,,,,,,,
17401127,Bjørhusdal vegdele,64.915,13.089,,,5001,,,,,,,,
17401128,Namsskogan,64.928,13.159,,,5001,,,,,,,,
17401170,Finnvolldalen vegdele,64.850,13.030,,,5001,,,,,,,,
17401202,Tunnsjødal vegdele,64.690,12.799,,,5001,,,,,,,,
17401206,Skorovatn,64.643,13.113,,,5001,,,,,,,,
17401346,Trones,64.748,12.854,,,5001,,,,,,,,
17401350,Trones skole,64.739,12.843,,,5001,,,,,,,,
17401352,Grøndalen,64.666,12.957,,,5001,,,,,,,,
17401372,Namsskogan skole,64.925,13.161,,,5001,,,,,,,,
17401447,Heimly,64.695,12.763,,,5001,,,,,,,,
17401448,Kjelmoåsen,64.679,12.829,,,5001,,,,,,,,
17401449,Kleiva,64.644,13.105,,,5001,,,,,,,,
17401452,Breifossen,64.848,13.022,,,5001,,,,,,,,
17401891,Finnvollen kryss,64.876,13.132,,,5001,,,,,,,,
17420000,Grong stasjon,64.456,12.337,,,4001,,,,,,,,
17420001,Ekker,64.444,12.338,,,4001,,,,,,,,
17420002,Formo,64.435,12.336,,,4001,,,,,,,,
17420003,Mediå,64.465,12.312,,,4001,,,,,,,,
17420004,Grong gård,64.466,12.298,,,4001,,,,,,,,
17420005,Duun,64.457,12.282,,,4001,,,,,,,,
17420006,Kvitum,64.454,12.271,,,4001,,,,,,,,
17420007,Heggum,64.454,12.258,,,4001,,,,,,,,
17420008,Grong,64.460,12.335,,,4001,,,,,,,,
17420009,Formofoss,64.400,12.344,,,4001,,,,,,,,
17420010,Ekkersætran,64.406,12.415,,,4001,,,,,,,,
17420011,Trangen,64.430,12.481,,,4001,,,,,,,,
17420012,Sandnes,64.438,12.498,,,4001,,,,,,,,
17420013,Godejord,64.450,12.574,,,4001,,,,,,,,
17420014,Nynesset,64.455,12.657,,,5001,,,,,,,,
17420015,Toremoen,64.460,12.763,,,5001,,,,,,,,
17420016,Hansmoen,64.464,12.825,,,5001,,,,,,,,
17420017,Mortenslund,64.466,12.926,,,5001,,,,,,,,
17420018,Sibirien,64.479,13.035,,,5001,,,,,,,,
17420019,Værem,64.454,12.211,,,4001,,,,,,,,
17420021,Bjørkamoen,64.468,12.129,,,4001,,,,,,,,
17420101,Fossland,64.485,12.335,,,4001,,,,,,,,
17420102,Selliness,64.511,12.368,,,4001,,,,,,,,
17420103,Gartlandelv,64.525,12.385,,,4001,,,,,,,,
17420104,Gartland,64.530,12.401,,,4001,,,,,,,,
17420106,Fiskumfoss,64.549,12.460,,,4001,,,,,,,,
17420107,Fiskum,64.553,12.466,,,4001,,,,,,,,
17420108,Harran,64.561,12.492,,,4001,,,,,,,,
17420109,Næss,64.573,12.533,,,4001,,,,,,,,
17420110,Bya,64.574,12.539,,,4001,,,,,,,,
17420111,Solum,64.582,12.558,,,4001,,,,,,,,
17420112,Overmoen,64.595,12.561,,,4001,,,,,,,,
17420113,Aunfoss,64.610,12.589,,,4001,,,,,,,,
17420114,Fjæringen,64.620,12.602,,,4001,,,,,,,,
17420115,Fjerdingelva,64.636,12.618,,,5001,,,,,,,,
17420116,Åsmulen,64.661,12.651,,,5001,,,,,,,,
17420117,Sæterhaugen,64.670,12.681,,,5001,,,,,,,,
17420118,Granamo,64.683,12.730,,,5001,,,,,,,,
17420119,Grøndalselv,64.691,12.754,,,5001,,,,,,,,
17420121,Gartland 2,64.533,12.393,,,4001,,,,,,,,
17420193,Solumsmoen,64.578,12.551,,,4001,,,,,,,,
17420194,Sagmo,64.558,12.477,,,4001,,,,,,,,
17420199,Tømmerås,64.449,12.339,,,4001,,,,,,,,
17420200,Sørheim,64.455,12.278,,,4001,,,,,,,,
17420201,Bergsmo øst,64.467,12.219,,,4001,,,,,,,,
17420287,Valskrå,64.462,12.161,,,4001,,,,,,,,
17420304,Harran oppvekstsenter,64.563,12.500,,,4001,,,,,,,,
17420307,Heia,64.357,12.331,,,4001,,,,,,,,
17420329,Bjørgan vegdele,64.388,12.341,,,4001,,,,,,,,
17420331,Grong vgs.,64.463,12.314,,,4001,,,,,,,,
17420415,Grong barne- og ungdomsskole,64.464,12.310,,,4001,,,,,,,,
17420623,Veium,64.468,12.101,,,4001,,,,,,,,
17420624,Brauta,64.481,12.147,,,4001,,,,,,,,
17420625,Holandsøy,64.480,12.158,,,4001,,,,,,,,
17420626,Leir,64.471,12.160,,,4001,,,,,,,,
17420627,Vie,64.469,12.168,,,4001,,,,,,,,
17420628,Føynum,64.470,12.196,,,4001,,,,,,,,
17420629,Bergsmo,64.470,12.205,,,4001,,,,,,,,
17420630,Moum,64.468,12.247,,,4001,,,,,,,,
17420631,Skjemsvold,64.452,12.231,,,4001,,,,,,,,
17420632,Jørem,64.454,12.186,,,4001,,,,,,,,
17420633,Øyheim,64.468,12.149,,,4001,,,,,,,,
17421001,Ekker,64.444,12.338,,,4001,,,,,,,,
17421002,Formo,64.435,12.336,,,4001,,,,,,,,
17421003,Mediå,64.465,12.312,,,4001,,,,,,,,
17421004,Grong gård,64.466,12.299,,,4001,,,,,,,,
17421005,Duun,64.457,12.282,,,4001,,,,,,,,
17421006,Kvitum,64.454,12.271,,,4001,,,,,,,,
17421007,Heggum,64.454,12.258,,,4001,,,,,,,,
17421008,Grong,64.459,12.335,,,4001,,,,,,,,
17421009,Formofoss,64.399,12.344,,,4001,,,,,,,,
17421010,Ekkersætran,64.406,12.415,,,4001,,,,,,,,
17421011,Trangen,64.430,12.481,,,4001,,,,,,,,
17421012,Sandnes,64.438,12.498,,,4001,,,,,,,,
17421013,Godejord,64.450,12.574,,,4001,,,,,,,,
17421014,Nynesset,64.456,12.657,,,5001,,,,,,,,
17421015,Toremoen,64.460,12.763,,,5001,,,,,,,,
17421016,Hansmoen,64.464,12.825,,,5001,,,,,,,,
17421017,Mortenslund,64.466,12.926,,,5001,,,,,,,,
17421018,Sibirien,64.479,13.035,,,5001,,,,,,,,
17421101,Fossland,64.485,12.336,,,4001,,,,,,,,
17421102,Selliness,64.511,12.368,,,4001,,,,,,,,
17421103,Gartlandelv,64.525,12.385,,,4001,,,,,,,,
17421104,Gartland,64.530,12.400,,,4001,,,,,,,,
17421106,Fiskumfoss,64.549,12.460,,,4001,,,,,,,,
17421107,Fiskum,64.553,12.466,,,4001,,,,,,,,
17421108,Harran,64.561,12.492,,,4001,,,,,,,,
17421109,Næss,64.573,12.533,,,4001,,,,,,,,
17421110,Bya,64.574,12.539,,,4001,,,,,,,,
17421111,Solum,64.585,12.560,,,4001,,,,,,,,
17421112,Overmoen,64.595,12.561,,,4001,,,,,,,,
17421113,Aunfoss,64.610,12.589,,,4001,,,,,,,,
17421114,Fjæringen,64.620,12.602,,,4001,,,,,,,,
17421115,Fjerdingelva,64.636,12.618,,,5001,,,,,,,,
17421116,Åsmulen,64.661,12.651,,,5001,,,,,,,,
17421117,Sæterhaugen,64.671,12.680,,,5001,,,,,,,,
17421118,Granamo,64.683,12.730,,,5001,,,,,,,,
17421119,Grøndalselv,64.691,12.751,,,5001,,,,,,,,
17421120,Rossetnes,64.522,12.414,,,4001,,,,,,,,
17421193,Solumsmoen,64.578,12.551,,,4001,,,,,,,,
17421194,Sagmo,64.558,12.477,,,4001,,,,,,,,
17421199,Tømmerås,64.449,12.339,,,4001,,,,,,,,
17421200,Sørheim,64.455,12.278,,,4001,,,,,,,,
17421201,Bergsmo øst,64.467,12.219,,,4001,,,,,,,,
17421287,Valskrå,64.461,12.160,,,4001,,,,,,,,
17421307,Heia,64.357,12.330,,,4001,,,,,,,,
17421329,Bjørgan vegdele,64.390,12.340,,,4001,,,,,,,,
17421331,Grong vgs.,64.463,12.314,,,4001,,,,,,,,
17421415,Grong barne- og ungdomsskole,64.464,12.310,,,4001,,,,,,,,
17421623,Veium,64.468,12.101,,,4001,,,,,,,,
17421624,Brauta,64.481,12.147,,,4001,,,,,,,,
17421625,Holandsøy,64.480,12.157,,,4001,,,,,,,,
17421626,Leir,64.471,12.159,,,4001,,,,,,,,
17421627,Vie,64.469,12.168,,,4001,,,,,,,,
17421628,Føynum,64.470,12.196,,,4001,,,,,,,,
17421629,Bergsmo,64.470,12.204,,,4001,,,,,,,,
17421630,Moum,64.468,12.247,,,4001,,,,,,,,
17421632,Jørem,64.454,12.186,,,4001,,,,,,,,
17421633,Øyheim,64.468,12.149,,,4001,,,,,,,,
17422000,Grong stasjon,64.457,12.337,,,4001,,,,,,,,
17430005,Eida,64.554,12.186,,,4001,,,,,,,,
17430006,Åvatsmark,64.574,12.243,,,4001,,,,,,,,
17430007,Mørkved,64.601,12.267,,,4001,,,,,,,,
17430008,Tyldum,64.610,12.277,,,4001,,,,,,,,
17430009,Høylandet sentrum,64.625,12.295,,,4001,,,,,,,,
17430010,Hjorten,64.637,12.315,,,4001,,,,,,,,
17430011,Mjøsund,64.668,12.328,,,4001,,,,,,,,
17430012,Flått,64.693,12.336,,,4001,,,,,,,,
17430013,Kjølstad,64.722,12.358,,,4001,,,,,,,,
17430014,Øye,64.744,12.355,,,4001,,,,,,,,
17430015,Bjørlia,64.763,12.347,,,4001,,,,,,,,
17430016,Meidal,64.786,12.343,,,4001,,,,,,,,
17430017,Rosendal,64.806,12.368,,,4001,,,,,,,,
17430018,Skogenget,64.828,12.384,,,4001,,,,,,,,
17430019,Lona Bru,64.855,12.414,,,4001,,,,,,,,
17430020,Kongsmo nord,64.874,12.433,,,4001,,,,,,,,
17430021,Bjøråa,64.912,12.384,,,4001,,,,,,,,
17430105,Brynntjønna,64.601,12.364,,,4001,,,,,,,,
17430339,Revyriket,64.627,12.304,,,4001,,,,,,,,
17430341,Aunet,64.885,12.459,,,4001,,,,,,,,
17430593,Kongsmo sør,64.868,12.429,,,4001,,,,,,,,
17430597,Okstad,64.632,12.312,,,4001,,,,,,,,
17430599,Kommunehuset,64.627,12.300,,,4001,,,,,,,,
17430601,Høylandet øst,64.625,12.311,,,4001,,,,,,,,
17430602,Nylenden,64.611,12.271,,,4001,,,,,,,,
17430603,Lia,64.606,12.253,,,4001,,,,,,,,
17430604,Myra,64.605,12.247,,,4001,,,,,,,,
17430605,Nesset,64.601,12.226,,,4001,,,,,,,,
17430606,Lauvset,64.595,12.212,,,4001,,,,,,,,
17430607,Grannes,64.583,12.204,,,4001,,,,,,,,
17430608,Mevassvik snuplass,64.582,12.202,,,4001,,,,,,,,
17430611,Tømmervold,64.551,12.111,,,4001,,,,,,,,
17430612,Høylandet skole,64.624,12.293,,,4001,,,,,,,,
17430812,Hæglia,64.563,12.195,,,4001,,,,,,,,
17430813,Brøndbo,64.618,12.336,,,4001,,,,,,,,
17430963,Solvang,64.712,12.322,,,4001,,,,,,,,
17430964,Hognes,64.731,12.314,,,4001,,,,,,,,
17431005,Eida,64.554,12.186,,,4001,,,,,,,,
17431006,Åvatsmark,64.574,12.243,,,4001,,,,,,,,
17431007,Mørkved,64.601,12.266,,,4001,,,,,,,,
17431008,Tyldum,64.610,12.277,,,4001,,,,,,,,
17431009,Høylandet sentrum,64.625,12.294,,,4001,,,,,,,,
17431010,Hjorten,64.638,12.314,,,4001,,,,,,,,
17431011,Mjøsund,64.668,12.328,,,4001,,,,,,,,
17431012,Flått,64.693,12.336,,,4001,,,,,,,,
17431013,Kjølstad,64.724,12.356,,,4001,,,,,,,,
17431014,Øye,64.744,12.355,,,4001,,,,,,,,
17431015,Bjørlia,64.763,12.347,,,4001,,,,,,,,
17431016,Meidal,64.786,12.343,,,4001,,,,,,,,
17431017,Rosendal,64.806,12.368,,,4001,,,,,,,,
17431018,Skogenget,64.828,12.384,,,4001,,,,,,,,
17431019,Lona Bru,64.855,12.414,,,4001,,,,,,,,
17431020,Kongsmo nord,64.875,12.433,,,4001,,,,,,,,
17431021,Bjøråa,64.911,12.384,,,4001,,,,,,,,
17431105,Brynntjønna,64.601,12.364,,,4001,,,,,,,,
17431341,Aunet,64.885,12.459,,,4001,,,,,,,,
17431593,Kongsmo sør,64.868,12.429,,,4001,,,,,,,,
17431597,Okstad,64.632,12.312,,,4001,,,,,,,,
17431599,Kommunehuset,64.627,12.301,,,4001,,,,,,,,
17431601,Høylandet øst,64.625,12.310,,,4001,,,,,,,,
17431602,Nylenden,64.611,12.271,,,4001,,,,,,,,
17431603,Lia,64.606,12.253,,,4001,,,,,,,,
17431604,Myra,64.605,12.247,,,4001,,,,,,,,
17431605,Nesset,64.601,12.226,,,4001,,,,,,,,
17431606,Lauvset,64.595,12.212,,,4001,,,,,,,,
17431607,Grannes,64.583,12.204,,,4001,,,,,,,,
17431608,Mevassvik snuplass,64.582,12.202,,,4001,,,,,,,,
17431812,Hæglia,64.563,12.196,,,4001,,,,,,,,
17431813,Brøndbo,64.618,12.336,,,4001,,,,,,,,
17431963,Solvang,64.712,12.322,,,4001,,,,,,,,
17431964,Hognes,64.732,12.315,,,4001,,,,,,,,
17440001,Fuglår,64.515,12.035,,,4001,,,,,,,,
17440002,Røttesmoen,64.522,12.064,,,4001,,,,,,,,
17440003,Flasnes,64.522,12.083,,,4001,,,,,,,,
17440004,Galguften,64.538,12.137,,,4001,,,,,,,,
17440134,Himo nord,64.507,11.979,,,4001,,,,,,,,
17440149,Skage Vest,64.467,11.755,,,740,,,,,,,,
17440172,Overhalla barne- og ungdomssko,64.498,11.960,,,4001,,,,,,,,
17440173,Øysletta Montessori,64.464,12.055,,,4001,,,,,,,,
17440174,Hildremsvegen,64.492,11.948,,,4001,,,,,,,,
17440175,Torvstrøvegen,64.459,11.801,,,4001,,,,,,,,
17440286,Todås vegdele,64.485,11.904,,,4001,,,,,,,,
17440288,Hildrem,64.493,11.946,,,4001,,,,,,,,
17440289,Ranem,64.495,11.950,,,4001,,,,,,,,
17440290,Tettlien,64.476,11.893,,,4001,,,,,,,,
17440291,Skiljås,64.481,11.800,,,4001,,,,,,,,
17440293,Lungdalen,64.518,12.040,,,4001,,,,,,,,
17440295,Kalvetrøen,64.510,11.985,,,4001,,,,,,,,
17440296,Litl-Skogmo,64.505,12.022,,,4001,,,,,,,,
17440297,Voll nord,64.500,12.025,,,4001,,,,,,,,
17440298,Voll,64.492,12.027,,,4001,,,,,,,,
17440299,Lysbakkan,64.518,11.986,,,4001,,,,,,,,
17440300,Kjerstad,64.514,11.987,,,4001,,,,,,,,
17440301,Dal vegdele,64.520,11.980,,,4001,,,,,,,,
17440302,Solem,64.530,11.968,,,4001,,,,,,,,
17440304,Lian,64.517,11.948,,,4001,,,,,,,,
17440305,Svaliaunet,64.513,11.928,,,4001,,,,,,,,
17440306,Svalia,64.506,11.930,,,4001,,,,,,,,
17440308,Krubbstu,64.506,11.945,,,4001,,,,,,,,
17440310,Barlia,64.497,11.911,,,4001,,,,,,,,
17440311,Helgemoen nord,64.488,11.948,,,4001,,,,,,,,
17440312,Helgemoen sør,64.486,11.942,,,4001,,,,,,,,
17440314,Dambakkan,64.465,12.036,,,4001,,,,,,,,
17440315,Møklegård,64.463,12.048,,,4001,,,,,,,,
17440316,Vangsnes,64.462,12.055,,,4001,,,,,,,,
17440317,Haugtun,64.461,12.078,,,4001,,,,,,,,
17440318,Nordtun,64.530,12.130,,,4001,,,,,,,,
17440321,Sandmo,64.462,11.660,,,4001,,,,,,,,
17440324,Meoslia,64.486,11.687,,,4001,,,,,,,,
17440325,Fagerli,64.451,11.854,,,4001,,,,,,,,
17440326,Skogrud,64.446,11.866,,,4001,,,,,,,,
17440327,Brudalen,64.469,11.900,,,4001,,,,,,,,
17440328,Ryggahøgda,64.479,11.865,,,4001,,,,,,,,
17440330,Nordhøy,64.476,11.854,,,4001,,,,,,,,
17440333,Klabbdal,64.499,11.893,,,4001,,,,,,,,
17440335,Sørbu,64.479,11.828,,,4001,,,,,,,,
17440336,Elvheim,64.482,11.823,,,4001,,,,,,,,
17440337,Nordgårdan,64.488,11.808,,,4001,,,,,,,,
17440338,Solstad,64.446,11.804,,,4001,,,,,,,,
17440341,Oppdalneset,64.448,11.915,,,4001,,,,,,,,
17440342,Bergli,64.454,11.925,,,4001,,,,,,,,
17440343,Hannabekkdalen,64.482,11.935,,,4001,,,,,,,,
17440344,Berg,64.480,11.715,,,4001,,,,,,,,
17440345,Reinbjør,64.476,11.737,,,4001,,,,,,,,
17440347,Karlsberg,64.473,11.744,,,4001,,,,,,,,
17440349,Skage Vest,64.467,11.754,,,4001,,,,,,,,
17440351,Skage Øst,64.463,11.772,,,4001,,,,,,,,
17440353,Hunn skole,64.462,11.765,,,4001,,,,,,,,
17440355,Furrenesset,64.459,11.739,,,4001,,,,,,,,
17440356,Horkmyra,64.446,11.774,,,4001,,,,,,,,
17440603,Meosen,64.482,11.642,,,4001,,,,,,,,
17440604,Kvatningen,64.482,11.655,,,4001,,,,,,,,
17440605,Gryta,64.478,11.713,,,4001,,,,,,,,
17440606,Reinbjør vegdele,64.469,11.747,,,4001,,,,,,,,
17440607,Skage,64.463,11.762,,,4001,,,,,,,,
17440608,Bellevold vegdele,64.464,11.791,,,4001,,,,,,,,
17440609,Ny Jord,64.469,11.820,,,4001,,,,,,,,
17440610,Hammer vegdele,64.473,11.838,,,4001,,,,,,,,
17440611,Øyesvold vegdele,64.481,11.891,,,4001,,,,,,,,
17440612,Skei,64.488,11.918,,,4001,,,,,,,,
17440613,Veglo,64.488,11.923,,,4001,,,,,,,,
17440614,Barlia vegdele,64.491,11.929,,,4001,,,,,,,,
17440615,Ranum,64.494,11.950,,,4001,,,,,,,,
17440616,Himo,64.503,11.975,,,4001,,,,,,,,
17440617,Bjøra,64.503,11.991,,,4001,,,,,,,,
17440618,Skogmo,64.508,12.013,,,4001,,,,,,,,
17440619,Fuglem,64.511,12.023,,,4001,,,,,,,,
17440620,Melhus,64.490,12.027,,,4001,,,,,,,,
17440621,Engstad,64.476,12.037,,,4001,,,,,,,,
17440622,Bertnem,64.468,12.057,,,4001,,,,,,,,
17440624,Veglonesset,64.488,11.935,,,4001,,,,,,,,
17440625,Ner-Veglo,64.490,11.929,,,4001,,,,,,,,
17440635,Lilleberre,64.461,12.095,,,4001,,,,,,,,
17440636,Storem,64.461,12.085,,,4001,,,,,,,,
17440637,Øysletta,64.460,12.068,,,4001,,,,,,,,
17440639,Grøte,64.482,12.021,,,4001,,,,,,,,
17440640,Grande,64.488,11.992,,,4001,,,,,,,,
17440641,Haugen,64.488,11.979,,,4001,,,,,,,,
17440642,Hylla,64.490,11.967,,,4001,,,,,,,,
17440643,Vibstad,64.467,11.928,,,4001,,,,,,,,
17440644,Vibstadøy,64.475,11.926,,,4001,,,,,,,,
17440645,Oppdal vegdele,64.443,11.906,,,4001,,,,,,,,
17440646,Utheim,64.442,11.897,,,4001,,,,,,,,
17440647,Sellæghylla,64.443,11.871,,,4001,,,,,,,,
17440648,Lilleøen,64.444,11.850,,,4001,,,,,,,,
17440649,Homstad,64.439,11.820,,,4001,,,,,,,,
17440651,Horka,64.438,11.794,,,4001,,,,,,,,
17440654,Råbakken,64.461,11.710,,,4001,,,,,,,,
17440662,Mælen,64.443,11.815,,,4001,,,,,,,,
17440663,Storøya,64.449,11.840,,,4001,,,,,,,,
17440666,Ristad vegdele,64.452,11.891,,,4001,,,,,,,,
17440667,Gansmo vegdele,64.464,11.900,,,4001,,,,,,,,
17440668,Øysvold sentrum,64.473,11.897,,,4001,,,,,,,,
17441001,Fuglår,64.515,12.035,,,4001,,,,,,,,
17441002,Røttesmoen,64.522,12.063,,,4001,,,,,,,,
17441003,Flasnes,64.522,12.083,,,4001,,,,,,,,
17441004,Galguften,64.537,12.136,,,4001,,,,,,,,
17441134,Himo nord,64.507,11.979,,,4001,,,,,,,,
17441172,Overhalla barne- og ungdomssko,64.498,11.960,,,4001,,,,,,,,
17441286,Todås vegdele,64.485,11.903,,,4001,,,,,,,,
17441288,Hildrem,64.493,11.946,,,4001,,,,,,,,
17441289,Ranem,64.495,11.951,,,4001,,,,,,,,
17441290,Tettlien,64.476,11.893,,,4001,,,,,,,,
17441291,Skiljås,64.481,11.800,,,4001,,,,,,,,
17441293,Lungdalen,64.518,12.040,,,4001,,,,,,,,
17441295,Kalvetrøen,64.510,11.985,,,4001,,,,,,,,
17441296,Litl-Skogmo,64.505,12.022,,,4001,,,,,,,,
17441297,Voll nord,64.500,12.024,,,4001,,,,,,,,
17441298,Voll,64.492,12.027,,,4001,,,,,,,,
17441299,Lysbakkan,64.518,11.986,,,4001,,,,,,,,
17441300,Kjerstad,64.514,11.986,,,4001,,,,,,,,
17441301,Dal vegdele,64.520,11.980,,,4001,,,,,,,,
17441302,Solem,64.530,11.968,,,4001,,,,,,,,
17441303,Amdal,64.517,11.956,,,4001,,,,,,,,
17441304,Lian,64.517,11.948,,,4001,,,,,,,,
17441305,Svaliaunet,64.513,11.928,,,4001,,,,,,,,
17441306,Svalia,64.505,11.937,,,4001,,,,,,,,
17441308,Krubbstu,64.506,11.945,,,4001,,,,,,,,
17441310,Barlia,64.497,11.911,,,4001,,,,,,,,
17441311,Helgemoen nord,64.488,11.948,,,4001,,,,,,,,
17441312,Helgemoen sør,64.486,11.942,,,4001,,,,,,,,
17441314,Dambakkan,64.465,12.036,,,4001,,,,,,,,
17441315,Møklegård,64.463,12.048,,,4001,,,,,,,,
17441316,Vangsnes,64.462,12.055,,,4001,,,,,,,,
17441317,Haugtun,64.461,12.078,,,4001,,,,,,,,
17441318,Nordtun,64.530,12.129,,,4001,,,,,,,,
17441321,Sandmo,64.463,11.657,,,4001,,,,,,,,
17441322,Myrvoll,64.485,11.657,,,4001,,,,,,,,
17441323,Aune,64.488,11.668,,,4001,,,,,,,,
17441324,Meoslia,64.486,11.687,,,4001,,,,,,,,
17441325,Fagerli,64.451,11.854,,,4001,,,,,,,,
17441326,Skogrud,64.446,11.866,,,4001,,,,,,,,
17441327,Brudalen,64.469,11.899,,,4001,,,,,,,,
17441328,Ryggahøgda,64.479,11.866,,,4001,,,,,,,,
17441330,Nordhøy,64.475,11.847,,,4001,,,,,,,,
17441333,Klabbdal,64.499,11.893,,,4001,,,,,,,,
17441334,Myrset,64.461,11.813,,,4001,,,,,,,,
17441335,Sørbu,64.479,11.828,,,4001,,,,,,,,
17441336,Elvheim,64.483,11.823,,,4001,,,,,,,,
17441337,Nordgårdan,64.488,11.807,,,4001,,,,,,,,
17441338,Solstad,64.446,11.804,,,4001,,,,,,,,
17441339,Oppdal,64.442,11.912,,,4001,,,,,,,,
17441341,Oppdalneset,64.448,11.915,,,4001,,,,,,,,
17441342,Bergli,64.454,11.926,,,4001,,,,,,,,
17441343,Hannabekkdalen,64.482,11.935,,,4001,,,,,,,,
17441344,Berg,64.480,11.715,,,4001,,,,,,,,
17441345,Reinbjør,64.476,11.734,,,4001,,,,,,,,
17441347,Karlsberg,64.473,11.744,,,4001,,,,,,,,
17441349,Skage Vest,64.467,11.755,,,4001,,,,,,,,
17441351,Skage Øst,64.462,11.770,,,4001,,,,,,,,
17441353,Hunn skole,64.462,11.766,,,4001,,,,,,,,
17441355,Furrenesset,64.458,11.744,,,4001,,,,,,,,
17441356,Horkmyra,64.446,11.774,,,4001,,,,,,,,
17441603,Meosen,64.482,11.641,,,4001,,,,,,,,
17441604,Kvatningen,64.482,11.655,,,4001,,,,,,,,
17441605,Gryta,64.478,11.713,,,4001,,,,,,,,
17441606,Reinbjør vegdele,64.469,11.747,,,4001,,,,,,,,
17441607,Skage,64.463,11.762,,,4001,,,,,,,,
17441608,Bellevold vegdele,64.464,11.790,,,4001,,,,,,,,
17441609,Ny Jord,64.469,11.820,,,4001,,,,,,,,
17441610,Hammer vegdele,64.474,11.839,,,4001,,,,,,,,
17441611,Øyesvold vegdele,64.481,11.891,,,4001,,,,,,,,
17441612,Skei,64.488,11.918,,,4001,,,,,,,,
17441613,Veglo,64.489,11.923,,,4001,,,,,,,,
17441614,Barlia vegdele,64.492,11.929,,,4001,,,,,,,,
17441615,Ranum,64.494,11.950,,,4001,,,,,,,,
17441616,Himo,64.503,11.976,,,4001,,,,,,,,
17441617,Bjøra,64.504,11.991,,,4001,,,,,,,,
17441618,Skogmo,64.508,12.013,,,4001,,,,,,,,
17441619,Fuglem,64.511,12.023,,,4001,,,,,,,,
17441620,Melhus,64.490,12.027,,,4001,,,,,,,,
17441621,Engstad,64.476,12.037,,,4001,,,,,,,,
17441622,Bertnem,64.468,12.057,,,4001,,,,,,,,
17441623,Langmyrvegen,64.470,11.824,,,4001,,,,,,,,
17441635,Lilleberre,64.461,12.095,,,4001,,,,,,,,
17441636,Storem,64.461,12.085,,,4001,,,,,,,,
17441637,Øysletta,64.460,12.069,,,4001,,,,,,,,
17441639,Grøte,64.482,12.020,,,4001,,,,,,,,
17441640,Grande,64.488,11.992,,,4001,,,,,,,,
17441641,Haugen,64.488,11.979,,,4001,,,,,,,,
17441642,Hylla,64.490,11.967,,,4001,,,,,,,,
17441643,Vibstad,64.467,11.928,,,4001,,,,,,,,
17441644,Vibstadøy,64.475,11.926,,,4001,,,,,,,,
17441645,Oppdal vegdele,64.443,11.906,,,4001,,,,,,,,
17441646,Utheim,64.442,11.897,,,4001,,,,,,,,
17441647,Sellæghylla,64.443,11.871,,,4001,,,,,,,,
17441648,Lilleøen,64.444,11.850,,,4001,,,,,,,,
17441649,Homstad,64.439,11.820,,,4001,,,,,,,,
17441651,Horka,64.438,11.794,,,4001,,,,,,,,
17441654,Råbakken,64.461,11.710,,,4001,,,,,,,,
17441662,Mælen,64.443,11.815,,,4001,,,,,,,,
17441663,Storøya,64.449,11.840,,,4001,,,,,,,,
17441666,Ristad vegdele,64.452,11.891,,,4001,,,,,,,,
17441667,Gansmo vegdele,64.464,11.900,,,4001,,,,,,,,
17441668,Øysvold sentrum,64.473,11.896,,,4001,,,,,,,,
17480183,Brekksillan,64.616,11.428,,,4001,,,,,,,,
17480248,Skjærvikkorsen,64.619,11.326,,,4001,,,,,,,,
17480435,Myrvika,64.604,11.427,,,4001,,,,,,,,
17480566,Fosnes,64.682,11.297,,,4001,,,,,,,,
17480568,Leite,64.680,11.290,,,4001,,,,,,,,
17480569,Myrmo,64.677,11.290,,,4001,,,,,,,,
17480570,Leirbekken,64.676,11.294,,,4001,,,,,,,,
17480575,Sandvika,64.650,11.199,,,4001,,,,,,,,
17480576,Myrseth,64.644,11.194,,,4001,,,,,,,,
17480577,Jøa skole,64.652,11.264,,,4001,,,,,,,,
17480578,Tranås,64.640,11.190,,,4001,,,,,,,,
17480579,Krokneset,64.635,11.212,,,4001,,,,,,,,
17480580,Engneset,64.636,11.226,,,4001,,,,,,,,
17480581,Faksdal vest,64.639,11.250,,,4001,,,,,,,,
17480582,Faksdal øst,64.640,11.253,,,4001,,,,,,,,
17480589,Strandstua,64.687,11.435,,,4001,,,,,,,,
17480620,Rønningen,64.636,11.334,,,4001,,,,,,,,
17480626,Gjesetmoen,64.635,11.325,,,4001,,,,,,,,
17480627,Gjesetodden,64.635,11.318,,,4001,,,,,,,,
17480628,Gjeset,64.636,11.313,,,4001,,,,,,,,
17480629,Foråsmoen,64.635,11.281,,,4001,,,,,,,,
17480631,Skrevstadkorsen,64.640,11.264,,,4001,,,,,,,,
17480632,Nygård,64.631,11.278,,,4001,,,,,,,,
17480635,Myrvang,64.632,11.337,,,4001,,,,,,,,
17480636,Bergem,64.626,11.335,,,4001,,,,,,,,
17480637,Bergsmoen,64.621,11.332,,,4001,,,,,,,,
17480639,Holvik,64.609,11.310,,,4001,,,,,,,,
17480836,Salsnes,64.703,11.442,,,4001,,,,,,,,
17480837,Kvernvik,64.733,11.524,,,4001,,,,,,,,
17480986,Mohammar,64.633,11.270,,,4001,,,,,,,,
17480988,Hovskorsen,64.658,11.216,,,4001,,,,,,,,
17481183,Brekksillan,64.616,11.428,,,4001,,,,,,,,
17481248,Skjærvikkorsen,64.619,11.326,,,4001,,,,,,,,
17481435,Myrvika,64.604,11.427,,,4001,,,,,,,,
17481568,Leite,64.680,11.290,,,4001,,,,,,,,
17481569,Myrmo,64.677,11.290,,,4001,,,,,,,,
17481570,Leirbekken,64.676,11.294,,,4001,,,,,,,,
17481589,Strandstua,64.687,11.434,,,4001,,,,,,,,
17481620,Rønningen,64.636,11.334,,,4001,,,,,,,,
17481626,Gjesetmoen,64.635,11.325,,,4001,,,,,,,,
17481627,Gjesetodden,64.635,11.318,,,4001,,,,,,,,
17481628,Gjeset,64.635,11.313,,,4001,,,,,,,,
17481629,Foråsmoen,64.635,11.281,,,4001,,,,,,,,
17481631,Skrevstadkorsen,64.639,11.264,,,4001,,,,,,,,
17481632,Nygård,64.631,11.278,,,4001,,,,,,,,
17481635,Myrvang,64.632,11.337,,,4001,,,,,,,,
17481636,Bergem,64.626,11.335,,,4001,,,,,,,,
17481637,Bergsmoen,64.621,11.332,,,4001,,,,,,,,
17481639,Holvik,64.609,11.310,,,4001,,,,,,,,
17481640,Holvik,64.606,11.300,,,4001,,,,,,,,
17481836,Salsnes,64.703,11.441,,,4001,,,,,,,,
17481837,Kvernvik,64.733,11.524,,,4001,,,,,,,,
17481986,Mohammar,64.633,11.270,,,4001,,,,,,,,
17481988,Hovskorsen,64.658,11.216,,,4001,,,,,,,,
17490281,Kilmyra,64.453,10.741,,,4001,,,,,,,,
17490282,Innervika,64.473,10.712,,,4001,,,,,,,,
17490295,Flatanger montessoriskole,64.453,10.754,,,4001,,,,,,,,
17490296,Lauvsnes skole,64.497,10.907,,,4001,,,,,,,,
17490298,Utvorda oppvekstsenter,64.584,10.990,,,4001,,,,,,,,
17490510,Fjell,64.431,10.991,,,4001,,,,,,,,
17490511,Dale,64.443,10.978,,,4001,,,,,,,,
17490513,Dalehaugen,64.448,10.971,,,4001,,,,,,,,
17490514,Dalebotn,64.453,10.947,,,4001,,,,,,,,
17490516,Fløanbrekka,64.463,10.913,,,4001,,,,,,,,
17490517,Fløan,64.469,10.911,,,4001,,,,,,,,
17490518,Rødalen,64.474,10.911,,,4001,,,,,,,,
17490519,Lauvsnes,64.499,10.894,,,4001,,,,,,,,
17490520,Stamnes,64.494,10.878,,,4001,,,,,,,,
17490521,Kjærsundet,64.502,10.845,,,4001,,,,,,,,
17490522,Leithe,64.506,10.813,,,4001,,,,,,,,
17490523,Einvika,64.508,10.806,,,4001,,,,,,,,
17490524,Gladsø nord,64.496,10.781,,,4001,,,,,,,,
17490525,Gladsø sør,64.486,10.772,,,4001,,,,,,,,
17490526,Hilstad,64.474,10.780,,,4001,,,,,,,,
17490527,Brandsmo vegdele,64.471,10.790,,,4001,,,,,,,,
17490528,Trefjord,64.461,10.789,,,4001,,,,,,,,
17490529,Vik,64.461,10.758,,,4001,,,,,,,,
17490531,Nesset,64.466,10.731,,,4001,,,,,,,,
17490532,Kvaløysæter,64.470,10.700,,,4001,,,,,,,,
17490541,Sandmoen,64.564,11.065,,,4001,,,,,,,,
17490542,Sandmohavn,64.567,11.054,,,4001,,,,,,,,
17490544,Brumoen,64.582,11.001,,,4001,,,,,,,,
17490545,Frisendal vegdele,64.588,10.976,,,4001,,,,,,,,
17490772,Brandsmoen snuplass,64.471,10.818,,,4001,,,,,,,,
17490776,Strend,64.470,10.718,,,4001,,,,,,,,
17490777,Kjerka,64.455,10.762,,,4001,,,,,,,,
17490778,Nylandet,64.457,10.789,,,4001,,,,,,,,
17490779,Brandsmon,64.469,10.813,,,4001,,,,,,,,
17491281,Kilmyra,64.453,10.741,,,4001,,,,,,,,
17491296,Lauvsnes skole,64.497,10.907,,,720,,,,,,,,
17491298,Utvorda oppvekstsenter,64.584,10.990,,,4001,,,,,,,,
17491510,Fjell,64.431,10.991,,,4001,,,,,,,,
17491511,Dale,64.443,10.978,,,4001,,,,,,,,
17491513,Dalehaugen,64.448,10.970,,,4001,,,,,,,,
17491514,Dalebotn,64.453,10.947,,,4001,,,,,,,,
17491515,Morka,64.427,10.972,,,4001,,,,,,,,
17491516,Fløanbrekka,64.463,10.912,,,4001,,,,,,,,
17491517,Fløan,64.469,10.911,,,4001,,,,,,,,
17491518,Rødalen,64.474,10.910,,,4001,,,,,,,,
17491519,Lauvsnes,64.499,10.894,,,4001,,,,,,,,
17491520,Stamnes,64.494,10.878,,,4001,,,,,,,,
17491521,Kjærsundet,64.502,10.845,,,4001,,,,,,,,
17491522,Leithe,64.506,10.813,,,4001,,,,,,,,
17491523,Einvika,64.508,10.806,,,4001,,,,,,,,
17491524,Gladsø nord,64.496,10.781,,,4001,,,,,,,,
17491525,Gladsø sør,64.486,10.772,,,4001,,,,,,,,
17491526,Hilstad,64.474,10.780,,,4001,,,,,,,,
17491527,Brandsmo vegdele,64.471,10.790,,,4001,,,,,,,,
17491528,Trefjord,64.461,10.790,,,4001,,,,,,,,
17491529,Vik,64.461,10.758,,,4001,,,,,,,,
17491531,Nesset,64.466,10.731,,,4001,,,,,,,,
17491532,Kvaløysæter,64.470,10.700,,,4001,,,,,,,,
17491541,Sandmoen,64.564,11.065,,,4001,,,,,,,,
17491542,Sandmohavn,64.567,11.054,,,4001,,,,,,,,
17491544,Brumoen,64.582,11.001,,,4001,,,,,,,,
17491545,Frisendal vegdele,64.588,10.976,,,4001,,,,,,,,
17491547,Frisendal,64.558,10.952,,,4001,,,,,,,,
17491776,Strend,64.470,10.718,,,4001,,,,,,,,
17491777,Kjerka,64.455,10.762,,,4001,,,,,,,,
17491778,Nylandet,64.457,10.789,,,4001,,,,,,,,
17491779,Brandsmon,64.469,10.813,,,4001,,,,,,,,
17491784,Sitter,64.530,10.977,,,4001,,,,,,,,
17500000,Rørvik,64.862,11.238,,,6001,,,,,,,,
17500010,Rossøya,64.867,10.919,,,6001,,,,,,,,
17500011,Sørgården,64.875,10.950,,,6001,,,,,,,,
17500013,Engesvika,64.938,10.916,,,6001,,,,,,,,
17500016,Åsvika vegdele,64.920,11.180,,,6001,,,,,,,,
17500018,Mølndal,64.918,11.213,,,6001,,,,,,,,
17500020,Sildnesstranda,64.911,11.250,,,6001,,,,,,,,
17500021,Hansvika nord,64.902,11.252,,,6001,,,,,,,,
17500022,Overgård,64.881,11.268,,,6001,,,,,,,,
17500023,Vallskifte,64.886,11.243,,,6001,,,,,,,,
17500024,Hansvikvegen,64.880,11.237,,,6001,,,,,,,,
17500026,Høgda,64.852,11.210,,,6001,,,,,,,,
17500027,Vika vegdele,64.851,11.201,,,6001,,,,,,,,
17500028,Haltvika,64.873,11.262,,,6001,,,,,,,,
17500029,Evenstad østre,64.856,11.115,,,6001,,,,,,,,
17500030,Kjønsøya,64.871,10.766,,,6001,,,,,,,,
17500056,Sandvik vegdele,64.851,11.210,,,6001,,,,,,,,
17500103,Rørvik hurtigbåtkai,64.861,11.239,,,900,,,,,,,,
17500118,Ryumsjøen,64.847,11.160,,,6001,,,,,,,,
17500306,Ytre Namdal vgs.,64.869,11.232,,,6001,,,,,,,,
17500502,Ryum,64.849,11.167,,,6001,,,,,,,,
17500503,Åkvik,64.849,11.149,,,6001,,,,,,,,
17500504,Dekkerhus,64.851,11.119,,,6001,,,,,,,,
17500506,Evenstad,64.860,11.113,,,6001,,,,,,,,
17500507,Lødding,64.903,11.155,,,6001,,,,,,,,
17500508,Søraunet vegdele,64.907,11.135,,,6001,,,,,,,,
17500509,Steinfjorden,64.899,11.153,,,6001,,,,,,,,
17500510,Ofstad vegdele,64.877,11.103,,,6001,,,,,,,,
17500513,Aunet,64.891,11.274,,,6001,,,,,,,,
17500516,Sørheim,64.913,11.294,,,6001,,,,,,,,
17500517,Lauvøyvågen,64.919,11.313,,,6001,,,,,,,,
17500519,Kvernhusdalen,64.926,11.334,,,6001,,,,,,,,
17500521,Hansvika,64.898,11.253,,,6001,,,,,,,,
17500522,Flerengstranda,64.915,11.244,,,6001,,,,,,,,
17500523,Vikestad vegdele,64.912,11.186,,,6001,,,,,,,,
17500524,Nordaunet,64.925,11.165,,,6001,,,,,,,,
17500550,Sund vegdele,64.916,11.122,,,6001,,,,,,,,
17500555,Østre,64.855,11.188,,,6001,,,,,,,,
17500557,Austafjord skole,64.918,10.942,,,6001,,,,,,,,
17500559,Dalen,64.896,10.915,,,6001,,,,,,,,
17500561,Valaunet,64.911,11.124,,,6001,,,,,,,,
17500562,Juvika,64.899,11.280,,,6001,,,,,,,,
17500563,Moen,64.925,11.327,,,6001,,,,,,,,
17500564,Hasfjord,64.954,11.030,,,6001,,,,,,,,
17500566,Hatland,64.960,11.079,,,6001,,,,,,,,
17500567,Lyngsnes,64.968,11.085,,,6001,,,,,,,,
17500568,Ulsund,64.902,10.850,,,6001,,,,,,,,
17500569,Sula,64.899,10.808,,,6001,,,,,,,,
17500570,Valøya,64.909,10.782,,,6001,,,,,,,,
17500571,Hunnestad,64.873,10.850,,,6001,,,,,,,,
17500573,Garstad,64.881,10.954,,,6001,,,,,,,,
17500574,Berg,64.851,10.869,,,6001,,,,,,,,
17500575,Fjukstad,64.924,10.882,,,6001,,,,,,,,
17500576,Ramstad,64.940,10.969,,,6001,,,,,,,,
17500577,Ramstadlandet,64.957,10.991,,,961,,,,,,,,
17501000,Rørvik,64.861,11.228,,,6001,,,,,,,,
17501010,Rossøya,64.867,10.919,,,6001,,,,,,,,
17501011,Sørgården,64.875,10.950,,,6001,,,,,,,,
17501013,Engesvika,64.938,10.916,,,6001,,,,,,,,
17501015,Sæternes,64.914,10.965,,,6001,,,,,,,,
17501016,Åsvika vegdele,64.920,11.180,,,6001,,,,,,,,
17501017,Nordgården,64.918,11.194,,,6001,,,,,,,,
17501018,Mølndal,64.918,11.213,,,6001,,,,,,,,
17501020,Sildnesstranda,64.911,11.250,,,6001,,,,,,,,
17501021,Hansvika nord,64.902,11.252,,,6001,,,,,,,,
17501022,Overgård,64.881,11.268,,,6001,,,,,,,,
17501023,Vallskifte,64.886,11.243,,,6001,,,,,,,,
17501024,Hansvikvegen,64.880,11.237,,,6001,,,,,,,,
17501026,Høgda,64.852,11.210,,,6001,,,,,,,,
17501027,Vika vegdele,64.851,11.201,,,6001,,,,,,,,
17501028,Haltvika,64.873,11.261,,,6001,,,,,,,,
17501029,Evenstad østre,64.856,11.115,,,6001,,,,,,,,
17501056,Sandvik vegdele,64.851,11.210,,,6001,,,,,,,,
17501118,Ryumsjøen,64.847,11.160,,,6001,,,,,,,,
17501502,Ryum,64.849,11.167,,,6001,,,,,,,,
17501503,Åkvik,64.849,11.149,,,6001,,,,,,,,
17501504,Dekkerhus,64.851,11.119,,,6001,,,,,,,,
17501506,Evenstad,64.860,11.112,,,6001,,,,,,,,
17501507,Lødding,64.903,11.155,,,6001,,,,,,,,
17501508,Søraunet vegdele,64.907,11.135,,,6001,,,,,,,,
17501509,Steinfjorden,64.899,11.153,,,6001,,,,,,,,
17501510,Ofstad vegdele,64.877,11.103,,,6001,,,,,,,,
17501516,Sørheim,64.913,11.293,,,6001,,,,,,,,
17501517,Lauvøyvågen,64.919,11.313,,,6001,,,,,,,,
17501521,Hansvika,64.898,11.253,,,6001,,,,,,,,
17501522,Flerengstranda,64.915,11.244,,,6001,,,,,,,,
17501523,Vikestad vegdele,64.912,11.186,,,6001,,,,,,,,
17501524,Nordaunet,64.925,11.165,,,6001,,,,,,,,
17501550,Sund vegdele,64.916,11.121,,,6001,,,,,,,,
17501551,Bremneskorsen,64.921,11.124,,,6001,,,,,,,,
17501553,Kvalfjord vegdele,64.917,11.032,,,6001,,,,,,,,
17501554,Gravset,64.912,11.005,,,6001,,,,,,,,
17501555,Østre,64.855,11.188,,,6001,,,,,,,,
17501556,Horseng,64.898,10.958,,,6001,,,,,,,,
17501558,Dragskorsen,64.928,11.079,,,6001,,,,,,,,
17501559,Dalen,64.896,10.915,,,6001,,,,,,,,
17501560,Austafjord,64.916,10.939,,,6001,,,,,,,,
17501561,Valaunet,64.911,11.124,,,6001,,,,,,,,
17501562,Juvika,64.899,11.280,,,6001,,,,,,,,
17501563,Moen,64.925,11.327,,,6001,,,,,,,,
17501564,Hasfjord,64.954,11.030,,,6001,,,,,,,,
17501566,Hatland,64.960,11.079,,,6001,,,,,,,,
17501567,Lyngsnes,64.969,11.085,,,6001,,,,,,,,
17501568,Ulsund,64.902,10.850,,,6001,,,,,,,,
17501569,Sula,64.899,10.808,,,6001,,,,,,,,
17501570,Valøya,64.909,10.782,,,6001,,,,,,,,
17501571,Hunnestad,64.873,10.850,,,6001,,,,,,,,
17501572,Kvernvik,64.907,10.980,,,6001,,,,,,,,
17501573,Garstad,64.881,10.954,,,6001,,,,,,,,
17501574,Berg,64.851,10.869,,,6001,,,,,,,,
17501575,Fjukstad,64.924,10.882,,,6001,,,,,,,,
17501576,Ramstad,64.940,10.969,,,6001,,,,,,,,
17501577,Ramstadlandet,64.957,10.991,,,961,,,,,,,,
17502056,Sandvik vegdele,64.851,11.210,,,6001,,,,,,,,
17503507,Lødding,64.903,11.155,,,6001,,,,,,,,
17510022,Laukholm,64.927,12.318,,,4001,,,,,,,,
17510023,Fornes,64.932,12.276,,,6001,,,,,,,,
17510024,Fesund,64.935,12.240,,,6001,,,,,,,,
17510025,Bogan,64.931,12.206,,,6001,,,,,,,,
17510026,Bergsvik,64.945,12.187,,,6001,,,,,,,,
17510027,Berg,64.950,12.183,,,6001,,,,,,,,
17510028,Foldereid,64.960,12.188,,,6001,,,,,,,,
17510030,Vennevik vegdele,64.958,12.214,,,6001,,,,,,,,
17510031,Sjølstad,64.966,12.069,,,6001,,,,,,,,
17510032,Åbogen,64.971,12.055,,,6001,,,,,,,,
17510033,Leirvika,64.963,12.030,,,6001,,,,,,,,
17510034,Skaftnesmoen,64.958,12.015,,,6001,,,,,,,,
17510035,Skaftnes vegdele,64.953,11.992,,,6001,,,,,,,,
17510036,Årfor,64.949,11.961,,,6001,,,,,,,,
17510037,Kalvikmoen,64.941,11.926,,,6001,,,,,,,,
17510038,Krekling,64.924,11.885,,,6001,,,,,,,,
17510039,Haugen,64.919,11.860,,,6001,,,,,,,,
17510040,Rokka,64.914,11.824,,,6001,,,,,,,,
17510041,Saltbotn vegdele,64.907,11.735,,,6001,,,,,,,,
17510042,Finne,64.879,11.662,,,6001,,,,,,,,
17510043,Kolvereid,64.864,11.600,,,6001,,,,,,,,
17510044,Ånes vegdele,64.864,11.569,,,6001,,,,,,,,
17510045,Mulstadaunet,64.863,11.551,,,6001,,,,,,,,
17510046,Leirbogen,64.857,11.521,,,6001,,,,,,,,
17510047,Strømbrua,64.855,11.512,,,6001,,,,,,,,
17510048,Nakling,64.852,11.482,,,6001,,,,,,,,
17510049,Lillevedde,64.849,11.404,,,6001,,,,,,,,
17510051,Sørli vegdele,64.846,11.339,,,6001,,,,,,,,
17510052,Sandnes vegdele,64.847,11.336,,,6001,,,,,,,,
17510053,Ottersøy vegdele,64.846,11.306,,,6001,,,,,,,,
17510054,Kumland,64.844,11.279,,,6001,,,,,,,,
17510101,Stigen,64.948,12.271,,,6001,,,,,,,,
17510103,Heimsnes,64.938,12.326,,,6001,,,,,,,,
17510116,Sandnesenget,64.863,11.414,,,6001,,,,,,,,
17510135,Horven,64.917,11.715,,,6001,,,,,,,,
17510201,Horven bru,64.910,11.699,,,6001,,,,,,,,
17510202,Osen,64.906,11.680,,,6001,,,,,,,,
17510203,Solvang,64.924,11.732,,,6001,,,,,,,,
17510211,Engstad,64.962,11.789,,,6001,,,,,,,,
17510212,Moahøgda,64.969,11.811,,,6001,,,,,,,,
17510214,Naustbukta,64.984,11.758,,,6001,,,,,,,,
17510215,Kongsvik,64.998,11.799,,,6001,,,,,,,,
17510216,Løvold vegdele,65.010,11.806,,,6001,,,,,,,,
17510217,Kiil,65.019,11.838,,,6001,,,,,,,,
17510218,Lundseng,65.032,11.863,,,6001,,,,,,,,
17510219,Kværnan,65.044,11.893,,,6001,,,,,,,,
17510220,Simle,65.065,11.952,,,6001,,,,,,,,
17510221,Bogen,65.074,11.953,,,6001,,,,,,,,
17510256,Søreitran,64.958,11.670,,,6001,,,,,,,,
17510273,Lund ferjekai,64.768,11.623,,,766,,,,,,,,
17510295,Jonsrud,64.930,11.751,,,6001,,,,,,,,
17510299,Nærøy ungdomsskole,64.863,11.599,,,6001,,,,,,,,
17510301,Val vgs.,64.786,11.420,,,6001,,,,,,,,
17510304,Horvereid,64.844,11.516,,,6001,,,,,,,,
17510305,Skagakorsen,64.823,11.496,,,6001,,,,,,,,
17510306,Haugaskaret,64.852,11.516,,,6001,,,,,,,,
17510307,Elsedalen,64.820,11.508,,,6001,,,,,,,,
17510308,Skaga,64.821,11.550,,,6001,,,,,,,,
17510309,Skagamoen,64.824,11.580,,,6001,,,,,,,,
17510310,Hofles,64.827,11.612,,,923,,,,,,,,
17510311,Geisnes,64.815,11.625,,,924,,,,,,,,
17510312,Sørenmo,64.815,11.694,,,6001,,,,,,,,
17510313,Risvika,64.809,11.742,,,6001,,,,,,,,
17510314,Setran,64.805,11.781,,,6001,,,,,,,,
17510315,Langnes,64.801,11.824,,,6001,,,,,,,,
17510316,Oplø skole,64.801,11.833,,,6001,,,,,,,,
17510317,Salsbruket,64.800,11.864,,,6001,,,,,,,,
17510321,Strandval vegdele,64.807,11.454,,,6001,,,,,,,,
17510322,Storval,64.814,11.441,,,6001,,,,,,,,
17510323,Dyrneset,64.807,11.414,,,6001,,,,,,,,
17510324,Varøystranda,64.806,11.387,,,6001,,,,,,,,
17510325,Varøya,64.810,11.353,,,6001,,,,,,,,
17510326,Fikkan skole,64.824,11.325,,,6001,,,,,,,,
17510327,Våg vegdele,64.823,11.319,,,6001,,,,,,,,
17510328,Storvea vegdele,64.841,11.345,,,6001,,,,,,,,
17510330,Sandnes,64.855,11.363,,,6001,,,,,,,,
17510332,Ottersøy,64.857,11.287,,,6001,,,,,,,,
17510341,Solheim,64.869,11.286,,,6001,,,,,,,,
17510343,Hestvika,64.886,11.323,,,6001,,,,,,,,
17510344,Dalan,64.889,11.334,,,6001,,,,,,,,
17510345,Torstad vegdele,64.891,11.357,,,6001,,,,,,,,
17510347,Søråa vegdele,64.879,11.423,,,6001,,,,,,,,
17510350,Sandvika,64.926,11.438,,,6001,,,,,,,,
17510351,Eidshaug,64.932,11.463,,,6001,,,,,,,,
17510352,Bakkan,64.923,11.485,,,6001,,,,,,,,
17510353,Måneset,64.938,11.480,,,6001,,,,,,,,
17510354,Værum skole,64.932,11.494,,,6001,,,,,,,,
17510355,Osan,64.925,11.515,,,6001,,,,,,,,
17510356,Langstrand vegdele,64.919,11.538,,,6001,,,,,,,,
17510357,Nubdal,64.921,11.562,,,6001,,,,,,,,
17510358,Ramfjord,64.909,11.588,,,6001,,,,,,,,
17510359,Rødseidet,64.933,11.622,,,6001,,,,,,,,
17510360,Røed vegdele,64.927,11.642,,,6001,,,,,,,,
17510485,Strand nord,64.812,11.483,,,6001,,,,,,,,
17510486,Strandhaugen,64.809,11.472,,,6001,,,,,,,,
17510487,Strandvalen,64.806,11.454,,,6001,,,,,,,,
17510488,Strand sør,64.809,11.481,,,6001,,,,,,,,
17510489,Laugagården,64.795,11.429,,,6001,,,,,,,,
17510491,Lilleval,64.785,11.407,,,6001,,,,,,,,
17510493,Vandholmen,64.776,11.381,,,6001,,,,,,,,
17510494,Skjånes,64.808,11.463,,,6001,,,,,,,,
17510495,Ørstrand,64.810,11.447,,,6001,,,,,,,,
17510496,Valen,64.789,11.402,,,6001,,,,,,,,
17510499,Ekorndalen,64.778,11.387,,,6001,,,,,,,,
17510500,Hamland,64.771,11.368,,,6001,,,,,,,,
17510501,Solbakk,64.752,11.300,,,6001,,,,,,,,
17510502,Steine,64.751,11.295,,,6001,,,,,,,,
17510503,Dille,64.751,11.291,,,6001,,,,,,,,
17510504,Butikken på Stein,64.750,11.289,,,6001,,,,,,,,
17510505,Salin,64.750,11.281,,,6001,,,,,,,,
17510506,Grindvollen,64.750,11.276,,,6001,,,,,,,,
17510507,Ramstad,64.747,11.232,,,6001,,,,,,,,
17510508,Butikken,64.731,11.183,,,6001,,,,,,,,
17510509,Abelvær skole,64.729,11.180,,,6001,,,,,,,,
17510510,Mohn butikk,64.810,11.347,,,6001,,,,,,,,
17510511,Moe,64.812,11.366,,,6001,,,,,,,,
17510512,Svendsen,64.813,11.370,,,6001,,,,,,,,
17510513,Bjørndal,64.829,11.391,,,6001,,,,,,,,
17510515,Lundring,64.819,11.278,,,6001,,,,,,,,
17510516,Grevstad,64.811,11.274,,,6001,,,,,,,,
17510517,Nyrud,64.810,11.275,,,6001,,,,,,,,
17510518,Rossøy,64.808,11.276,,,6001,,,,,,,,
17510519,Vestvika,64.799,11.281,,,6001,,,,,,,,
17510520,Lille Arnøy,64.799,11.288,,,6001,,,,,,,,
17510521,Nordgård,64.793,11.307,,,6001,,,,,,,,
17510522,Store Arnøy,64.791,11.300,,,6001,,,,,,,,
17510525,Myrmo,64.832,11.329,,,6001,,,,,,,,
17510528,Lørdagsvika,64.844,11.284,,,6001,,,,,,,,
17510529,Smevikaunet,64.848,11.231,,,6001,,,,,,,,
17510530,Holandsdalen,64.954,12.236,,,6001,,,,,,,,
17510531,Foldereid vest,64.962,12.177,,,6001,,,,,,,,
17510532,Bjørgokorsen,64.960,12.023,,,6001,,,,,,,,
17510533,Kvernmoen,64.933,11.910,,,6001,,,,,,,,
17510534,Sprengarbakkan,64.913,11.805,,,6001,,,,,,,,
17510535,Yttersetran,64.909,11.788,,,6001,,,,,,,,
17510536,Finnemokorsen,64.883,11.667,,,6001,,,,,,,,
17510537,Nordsjøkorsen,64.867,11.587,,,6001,,,,,,,,
17510538,Åneset,64.859,11.557,,,6001,,,,,,,,
17510540,Åkre,64.853,11.538,,,6001,,,,,,,,
17510541,Heimstad,64.854,11.503,,,6001,,,,,,,,
17510542,Vestgård,64.851,11.444,,,6001,,,,,,,,
17510543,Volden,64.843,11.515,,,6001,,,,,,,,
17510544,Myrvoll,64.830,11.506,,,6001,,,,,,,,
17510547,Svanåsen,64.949,11.777,,,6001,,,,,,,,
17510548,Strømlia,64.983,11.763,,,6001,,,,,,,,
17510552,Gravvik,64.989,11.771,,,6001,,,,,,,,
17510553,Nygård,65.037,11.878,,,6001,,,,,,,,
17510623,Lund skole,64.767,11.607,,,4001,,,,,,,,
17510838,Smines,64.752,11.546,,,4001,,,,,,,,
17510877,Fagerbakken,64.823,11.574,,,6001,,,,,,,,
17510878,Fjøsa,64.824,11.576,,,6001,,,,,,,,
17510879,Kvisterø,64.825,11.591,,,6001,,,,,,,,
17510880,Løvseth,64.863,11.569,,,6001,,,,,,,,
17510882,Torlandskorsen,64.782,11.409,,,6001,,,,,,,,
17510887,Sørlia,64.949,11.949,,,6001,,,,,,,,
17510888,Kalvika,64.939,11.922,,,6001,,,,,,,,
17510893,Masterdalskrysset,64.951,11.780,,,6001,,,,,,,,
17510894,Granås,64.944,11.768,,,6001,,,,,,,,
17510897,Rosenvinge,64.967,12.074,,,6001,,,,,,,,
17510898,Nygård,64.848,11.238,,,6001,,,,,,,,
17510899,Storvold,64.847,11.241,,,6001,,,,,,,,
17510900,Marøystranda,64.846,11.255,,,6001,,,,,,,,
17510902,Fjær,64.916,11.602,,,6001,,,,,,,,
17510904,Moen,64.955,11.663,,,6001,,,,,,,,
17510906,Teplingen,64.946,12.306,,,6001,,,,,,,,
17510907,Tømmervik vegdele,64.848,11.531,,,6001,,,,,,,,
17510908,Nærøysundet skole,64.857,11.288,,,6001,,,,,,,,
17511022,Laukholm,64.926,12.318,,,4001,,,,,,,,
17511023,Fornes,64.932,12.276,,,6001,,,,,,,,
17511024,Fesund,64.935,12.240,,,6001,,,,,,,,
17511025,Bogan,64.931,12.206,,,6001,,,,,,,,
17511026,Bergsvik,64.945,12.187,,,6001,,,,,,,,
17511027,Berg,64.950,12.183,,,6001,,,,,,,,
17511028,Foldereid,64.960,12.188,,,6001,,,,,,,,
17511029,Nordlandskorsen,64.969,12.160,,,6001,,,,,,,,
17511030,Vennevik vegdele,64.958,12.214,,,6001,,,,,,,,
17511031,Sjølstad,64.966,12.069,,,6001,,,,,,,,
17511032,Åbogen,64.971,12.055,,,6001,,,,,,,,
17511033,Leirvika,64.963,12.030,,,6001,,,,,,,,
17511034,Skaftnesmoen,64.958,12.015,,,6001,,,,,,,,
17511035,Skaftnes vegdele,64.953,11.992,,,6001,,,,,,,,
17511036,Årfor,64.949,11.961,,,6001,,,,,,,,
17511037,Kalvikmoen,64.940,11.926,,,6001,,,,,,,,
17511038,Krekling,64.924,11.885,,,6001,,,,,,,,
17511039,Haugen,64.919,11.861,,,6001,,,,,,,,
17511040,Rokka,64.914,11.824,,,6001,,,,,,,,
17511041,Saltbotn vegdele,64.907,11.735,,,6001,,,,,,,,
17511042,Finne,64.879,11.662,,,6001,,,,,,,,
17511043,Kolvereid,64.864,11.600,,,6001,,,,,,,,
17511044,Ånes vegdele,64.864,11.569,,,6001,,,,,,,,
17511045,Mulstadaunet,64.863,11.551,,,6001,,,,,,,,
17511046,Leirbogen,64.857,11.521,,,6001,,,,,,,,
17511047,Strømbrua,64.855,11.513,,,6001,,,,,,,,
17511048,Nakling,64.852,11.482,,,6001,,,,,,,,
17511049,Lillevedde,64.849,11.404,,,6001,,,,,,,,
17511051,Sørli vegdele,64.846,11.340,,,6001,,,,,,,,
17511052,Sandnes vegdele,64.847,11.336,,,6001,,,,,,,,
17511053,Ottersøy vegdele,64.846,11.306,,,6001,,,,,,,,
17511054,Kumland,64.843,11.279,,,6001,,,,,,,,
17511101,Stigen,64.948,12.271,,,6001,,,,,,,,
17511115,Holand,64.864,11.355,,,6001,,,,,,,,
17511135,Horven,64.917,11.715,,,6001,,,,,,,,
17511201,Horven bru,64.910,11.699,,,6001,,,,,,,,
17511202,Osen,64.906,11.680,,,6001,,,,,,,,
17511203,Solvang,64.924,11.732,,,6001,,,,,,,,
17511211,Engstad,64.962,11.789,,,6001,,,,,,,,
17511212,Moahøgda,64.969,11.810,,,6001,,,,,,,,
17511214,Naustbukta,64.984,11.757,,,6001,,,,,,,,
17511215,Kongsvik,64.998,11.798,,,6001,,,,,,,,
17511216,Løvold vegdele,65.010,11.806,,,6001,,,,,,,,
17511217,Kiil,65.019,11.838,,,6001,,,,,,,,
17511218,Lundseng,65.032,11.863,,,6001,,,,,,,,
17511219,Kværnan,65.044,11.893,,,6001,,,,,,,,
17511220,Simle,65.065,11.952,,,6001,,,,,,,,
17511221,Bogen,65.074,11.953,,,6001,,,,,,,,
17511273,Lund ferjekai,64.768,11.623,,,4001,,,,,,,,
17511295,Jonsrud,64.930,11.751,,,6001,,,,,,,,
17511304,Horvereid,64.844,11.516,,,6001,,,,,,,,
17511305,Skagakorsen,64.823,11.496,,,6001,,,,,,,,
17511306,Haugaskaret,64.852,11.516,,,6001,,,,,,,,
17511307,Elsedalen,64.820,11.508,,,6001,,,,,,,,
17511308,Skaga,64.821,11.550,,,6001,,,,,,,,
17511309,Skagamoen,64.824,11.580,,,6001,,,,,,,,
17511310,Hofles,64.827,11.611,,,923,,,,,,,,
17511311,Geisnes,64.815,11.625,,,924,,,,,,,,
17511312,Sørenmo,64.815,11.694,,,6001,,,,,,,,
17511313,Risvika,64.809,11.742,,,6001,,,,,,,,
17511314,Setran,64.805,11.781,,,6001,,,,,,,,
17511315,Langnes,64.801,11.824,,,6001,,,,,,,,
17511316,Oplø skole,64.801,11.833,,,6001,,,,,,,,
17511317,Salsbruket,64.800,11.863,,,6001,,,,,,,,
17511320,Strand,64.810,11.485,,,6001,,,,,,,,
17511321,Strandval vegdele,64.807,11.454,,,6001,,,,,,,,
17511322,Storval,64.814,11.441,,,6001,,,,,,,,
17511323,Dyrneset,64.807,11.414,,,6001,,,,,,,,
17511324,Varøystranda,64.806,11.387,,,6001,,,,,,,,
17511325,Varøya,64.809,11.353,,,6001,,,,,,,,
17511326,Fikkan skole,64.823,11.325,,,6001,,,,,,,,
17511327,Våg vegdele,64.823,11.319,,,6001,,,,,,,,
17511328,Storvea vegdele,64.841,11.345,,,6001,,,,,,,,
17511330,Sandnes,64.855,11.363,,,6001,,,,,,,,
17511332,Ottersøy,64.857,11.287,,,6001,,,,,,,,
17511341,Solheim,64.869,11.286,,,6001,,,,,,,,
17511343,Hestvika,64.886,11.323,,,6001,,,,,,,,
17511344,Dalan,64.889,11.334,,,6001,,,,,,,,
17511345,Torstad vegdele,64.891,11.357,,,6001,,,,,,,,
17511347,Søråa vegdele,64.879,11.423,,,6001,,,,,,,,
17511350,Sandvika,64.926,11.438,,,6001,,,,,,,,
17511351,Eidshaug,64.932,11.463,,,6001,,,,,,,,
17511352,Bakkan,64.923,11.485,,,6001,,,,,,,,
17511353,Måneset,64.938,11.479,,,6001,,,,,,,,
17511354,Værum skole,64.932,11.494,,,6001,,,,,,,,
17511355,Osan,64.925,11.515,,,6001,,,,,,,,
17511356,Langstrand vegdele,64.919,11.537,,,6001,,,,,,,,
17511357,Nubdal,64.921,11.562,,,6001,,,,,,,,
17511359,Rødseidet,64.933,11.622,,,6001,,,,,,,,
17511360,Røed vegdele,64.927,11.642,,,6001,,,,,,,,
17511485,Strand nord,64.812,11.483,,,6001,,,,,,,,
17511486,Strandhaugen,64.809,11.472,,,6001,,,,,,,,
17511487,Strandvalen,64.806,11.454,,,6001,,,,,,,,
17511488,Strand sør,64.809,11.482,,,6001,,,,,,,,
17511489,Laugagården,64.795,11.429,,,6001,,,,,,,,
17511491,Lilleval,64.785,11.408,,,6001,,,,,,,,
17511493,Vandholmen,64.776,11.381,,,6001,,,,,,,,
17511494,Skjånes,64.808,11.463,,,6001,,,,,,,,
17511495,Ørstrand,64.810,11.447,,,6001,,,,,,,,
17511496,Valen,64.789,11.402,,,6001,,,,,,,,
17511499,Ekorndalen,64.778,11.387,,,6001,,,,,,,,
17511500,Hamland,64.771,11.368,,,6001,,,,,,,,
17511501,Solbakk,64.752,11.301,,,6001,,,,,,,,
17511502,Steine,64.751,11.295,,,6001,,,,,,,,
17511503,Dille,64.751,11.291,,,6001,,,,,,,,
17511504,Butikken på Stein,64.750,11.289,,,6001,,,,,,,,
17511505,Salin,64.750,11.281,,,6001,,,,,,,,
17511506,Grindvollen,64.750,11.275,,,6001,,,,,,,,
17511507,Ramstad,64.746,11.232,,,6001,,,,,,,,
17511508,Butikken,64.731,11.183,,,6001,,,,,,,,
17511509,Abelvær skole,64.729,11.181,,,6001,,,,,,,,
17511510,Mohn butikk,64.810,11.347,,,6001,,,,,,,,
17511511,Moe,64.812,11.366,,,6001,,,,,,,,
17511512,Svendsen,64.813,11.371,,,6001,,,,,,,,
17511513,Bjørndal,64.829,11.391,,,6001,,,,,,,,
17511515,Lundring,64.819,11.278,,,6001,,,,,,,,
17511516,Grevstad,64.811,11.274,,,6001,,,,,,,,
17511517,Nyrud,64.810,11.275,,,6001,,,,,,,,
17511518,Rossøy,64.808,11.276,,,6001,,,,,,,,
17511519,Vestvika,64.799,11.281,,,6001,,,,,,,,
17511520,Lille Arnøy,64.799,11.288,,,6001,,,,,,,,
17511521,Nordgård,64.793,11.307,,,6001,,,,,,,,
17511522,Store Arnøy,64.791,11.300,,,6001,,,,,,,,
17511525,Myrmo,64.832,11.328,,,6001,,,,,,,,
17511528,Lørdagsvika,64.844,11.284,,,6001,,,,,,,,
17511529,Smevikaunet,64.848,11.231,,,6001,,,,,,,,
17511530,Holandsdalen,64.954,12.236,,,6001,,,,,,,,
17511531,Foldereid vest,64.962,12.177,,,6001,,,,,,,,
17511532,Bjørgokorsen,64.960,12.023,,,6001,,,,,,,,
17511533,Kvernmoen,64.933,11.911,,,6001,,,,,,,,
17511534,Sprengarbakkan,64.913,11.805,,,6001,,,,,,,,
17511535,Yttersetran,64.909,11.788,,,6001,,,,,,,,
17511536,Finnemokorsen,64.883,11.667,,,6001,,,,,,,,
17511537,Nordsjøkorsen,64.867,11.587,,,6001,,,,,,,,
17511538,Åneset,64.859,11.558,,,6001,,,,,,,,
17511540,Åkre,64.853,11.538,,,6001,,,,,,,,
17511541,Heimstad,64.854,11.503,,,6001,,,,,,,,
17511542,Vestgård,64.851,11.444,,,6001,,,,,,,,
17511543,Volden,64.843,11.515,,,6001,,,,,,,,
17511544,Myrvoll,64.830,11.506,,,6001,,,,,,,,
17511547,Svanåsen,64.949,11.777,,,6001,,,,,,,,
17511548,Strømlia,64.982,11.763,,,6001,,,,,,,,
17511549,Gravvik skole,64.990,11.729,,,6001,,,,,,,,
17511552,Gravvik,64.989,11.771,,,6001,,,,,,,,
17511553,Nygård,65.037,11.878,,,6001,,,,,,,,
17511622,Foldereid skole,64.961,12.178,,,6001,,,,,,,,
17511623,Lund skole,64.767,11.607,,,4001,,,,,,,,
17511838,Smines,64.752,11.546,,,4001,,,,,,,,
17511877,Fagerbakken,64.823,11.574,,,6001,,,,,,,,
17511878,Fjøsa,64.824,11.576,,,6001,,,,,,,,
17511879,Kvisterø,64.825,11.591,,,6001,,,,,,,,
17511880,Løvseth,64.863,11.569,,,6001,,,,,,,,
17511882,Torlandskorsen,64.782,11.409,,,6001,,,,,,,,
17511887,Sørlia,64.949,11.949,,,6001,,,,,,,,
17511888,Kalvika,64.939,11.922,,,6001,,,,,,,,
17511893,Masterdalskrysset,64.951,11.780,,,6001,,,,,,,,
17511894,Granås,64.944,11.767,,,6001,,,,,,,,
17511897,Rosenvinge,64.966,12.074,,,6001,,,,,,,,
17511898,Nygård,64.848,11.238,,,6001,,,,,,,,
17511899,Storvold,64.847,11.241,,,6001,,,,,,,,
17511900,Marøystranda,64.846,11.255,,,6001,,,,,,,,
17511902,Fjær,64.916,11.602,,,6001,,,,,,,,
17511904,Moen,64.955,11.663,,,6001,,,,,,,,
17511906,Teplingen,64.946,12.306,,,6001,,,,,,,,
17511907,Tømmervik vegdele,64.848,11.531,,,6001,,,,,,,,
17512029,Nordlandskorsen,64.970,12.160,,,6001,,,,,,,,
17512041,Saltbotn vegdele,64.907,11.735,,,6001,,,,,,,,
17512044,Ånes vegdele,64.864,11.569,,,6001,,,,,,,,
17512047,Strømbrua,64.855,11.512,,,6001,,,,,,,,
17512051,Sørli vegdele,64.846,11.339,,,6001,,,,,,,,
17512052,Sandnes vegdele,64.847,11.336,,,6001,,,,,,,,
17512053,Ottersøy vegdele,64.846,11.306,,,6001,,,,,,,,
17512201,Horven bru,64.910,11.699,,,6001,,,,,,,,
17512305,Skagakorsen,64.823,11.496,,,6001,,,,,,,,
17512321,Strandval vegdele,64.807,11.454,,,6001,,,,,,,,
17512325,Varøya,64.809,11.353,,,6001,,,,,,,,
17512327,Våg vegdele,64.823,11.319,,,6001,,,,,,,,
17550211,Husby,65.087,11.711,,,6001,,,,,,,,
17550212,Leka skole,65.093,11.706,,,6001,,,,,,,,
17550213,Vikamoen,65.076,11.681,,,6001,,,,,,,,
17550214,Kleiva,65.072,11.672,,,6001,,,,,,,,
17550215,Brikdal,65.071,11.657,,,6001,,,,,,,,
17550216,Høgmo,65.060,11.676,,,6001,,,,,,,,
17550217,Madsøy,65.063,11.685,,,6001,,,,,,,,
17550220,Stein,65.093,11.587,,,6001,,,,,,,,
17550223,Fagertun,65.089,11.582,,,6001,,,,,,,,
17550224,Aunet,65.083,11.579,,,6001,,,,,,,,
17550226,Engan,65.076,11.576,,,6001,,,,,,,,
17550233,Fjellset,65.062,11.632,,,6001,,,,,,,,
17550714,Frøvik,65.069,11.669,,,6001,,,,,,,,
17550966,Kjella skole,65.105,11.997,,,6001,,,,,,,,
17550967,Gutvik,65.084,11.828,,,6001,,,,,,,,
17550969,Skei Leka,65.093,11.732,,,6001,,,,,,,,
17551211,Husby,65.087,11.712,,,6001,,,,,,,,
17551212,Leka skole,65.094,11.706,,,6001,,,,,,,,
17551213,Vikamoen,65.076,11.681,,,6001,,,,,,,,
17551214,Kleiva,65.072,11.672,,,6001,,,,,,,,
17551215,Brikdal,65.071,11.657,,,6001,,,,,,,,
17551216,Høgmo,65.060,11.676,,,6001,,,,,,,,
17551220,Stein,65.094,11.590,,,6001,,,,,,,,
17551223,Fagertun,65.089,11.582,,,6001,,,,,,,,
17551224,Aunet,65.083,11.579,,,6001,,,,,,,,
17551226,Engan,65.076,11.575,,,6001,,,,,,,,
17551232,Vassdalen,65.057,11.615,,,6001,,,,,,,,
17551233,Fjellset,65.061,11.632,,,6001,,,,,,,,
17551714,Frøvik,65.069,11.669,,,6001,,,,,,,,
17551966,Kjella skole,65.104,11.997,,,6001,,,,,,,,
17551967,Gutvik,65.084,11.828,,,6001,,,,,,,,
17551969,Skei,65.093,11.732,,,6001,,,,,,,,
17552232,Vassdalen,65.057,11.615,,,6001,,,,,,,,
17560000,Fossum Auto,63.874,11.290,,,3006,,,,,,,,
17560008,Straumen,63.872,11.298,,,3006,,,,,,,,
17560009,Vika,63.852,11.319,,,3006,,,,,,,,
17560010,Hø,63.846,11.317,,,3006,,,,,,,,
17560011,Høbakken,63.845,11.328,,,3006,,,,,,,,
17560012,Kverkilberget,63.851,11.360,,,3006,,,,,,,,
17560013,Hellbergkorsen,63.845,11.379,,,3006,,,,,,,,
17560014,Hyllfjæra,63.847,11.393,,,3006,,,,,,,,
17560015,Salberg,63.849,11.401,,,3006,,,,,,,,
17560025,Venna vegdele,63.874,11.291,,,3006,,,,,,,,
17560026,Inderøy vgs.,63.876,11.289,,,3006,,,,,,,,
17560028,Sakshaug skole,63.878,11.287,,,3006,,,,,,,,
17560030,Ingul,63.895,11.304,,,3006,,,,,,,,
17560031,Verdalsmyra,63.905,11.305,,,3006,,,,,,,,
17560032,Sakshaug,63.874,11.273,,,3006,,,,,,,,
17560034,Kvam,63.864,11.180,,,3006,,,,,,,,
17560036,Jørstad,63.861,11.155,,,3006,,,,,,,,
17560040,Stokkanhaugen,63.876,11.107,,,3006,,,,,,,,
17560041,Heggstad,63.947,11.326,,,3006,,,,,,,,
17560042,Hestenget,63.951,11.329,,,3006,,,,,,,,
17560043,Gangstadkorsen,63.958,11.334,,,3006,,,,,,,,
17560044,Nedre Gangstad,63.961,11.335,,,3006,,,,,,,,
17560045,Vådal,63.963,11.335,,,3006,,,,,,,,
17560046,Krokskorsen,63.966,11.373,,,3006,,,,,,,,
17560047,Fjordgløttvegen,63.963,11.309,,,3006,,,,,,,,
17560048,Grønnesby,63.961,11.284,,,3006,,,,,,,,
17560049,Åsvegen,63.962,11.311,,,3006,,,,,,,,
17560050,Haugavegen,63.963,11.306,,,3006,,,,,,,,
17560051,Norem snuplass,63.882,11.077,,,3006,,,,,,,,
17560052,Ålberg,63.959,11.281,,,3006,,,,,,,,
17560053,Byakorsen,63.900,11.188,,,3006,,,,,,,,
17560054,Brekka,63.874,11.196,,,3006,,,,,,,,
17560055,Rol,63.856,11.321,,,3006,,,,,,,,
17560056,Undersåker,63.855,11.181,,,3006,,,,,,,,
17560059,Lynghaug,63.892,11.279,,,3006,,,,,,,,
17560215,Plassa,63.940,11.239,,,3006,,,,,,,,
17560216,Vist,63.929,11.231,,,3006,,,,,,,,
17560217,Glømstad,63.927,11.237,,,3006,,,,,,,,
17560218,Malihaugen,63.925,11.250,,,3006,,,,,,,,
17560219,Verstad,63.925,11.259,,,3006,,,,,,,,
17560220,Sneve,63.871,11.207,,,3006,,,,,,,,
17560221,Lursvingen,63.874,11.248,,,3006,,,,,,,,
17560222,Kvamsholmen,63.860,11.190,,,3006,,,,,,,,
17560223,Westerhus,63.871,11.148,,,3006,,,,,,,,
17560224,Stavran,63.871,11.137,,,3006,,,,,,,,
17560225,Farbu,63.871,11.134,,,3006,,,,,,,,
17560226,Ørdal,63.873,11.097,,,3006,,,,,,,,
17560227,Dalabakken,63.892,11.114,,,3006,,,,,,,,
17560228,Nordenget,63.848,11.154,,,3006,,,,,,,,
17560232,Museet,63.821,10.996,,,3006,,,,,,,,
17560233,Oppgrande,63.819,10.978,,,3006,,,,,,,,
17560234,Vinje,63.817,10.991,,,3006,,,,,,,,
17560249,Mosvang,63.819,11.005,,,3006,,,,,,,,
17560301,Røra,63.859,11.400,,,3006,,,,,,,,
17560302,Røra stasjon,63.856,11.401,,,3006,,,,,,,,
17560303,Svimyra,63.870,11.404,,,3006,,,,,,,,
17560305,Berg nord,63.881,11.428,,,3006,,,,,,,,
17560306,Røskje,63.884,11.427,,,3006,,,,,,,,
17560307,Nyjalet,63.867,11.366,,,3006,,,,,,,,
17560308,Flaget,63.851,11.348,,,3006,,,,,,,,
17560309,Hylla,63.841,11.385,,,3006,,,,,,,,
17560311,Loråsmarka,63.868,11.372,,,3006,,,,,,,,
17560312,Røra skole,63.859,11.397,,,3006,,,,,,,,
17560356,Gausa,63.891,11.190,,,3006,,,,,,,,
17560357,Berg,63.901,11.174,,,3006,,,,,,,,
17560358,Forsbakk,63.844,11.132,,,3006,,,,,,,,
17560441,Korsen,63.951,11.374,,,3006,,,,,,,,
17560707,Hemre,63.954,11.274,,,3006,,,,,,,,
17560708,Vikan,63.939,11.235,,,3006,,,,,,,,
17560709,Agle,63.936,11.235,,,3006,,,,,,,,
17560711,Nedre Vist,63.930,11.226,,,3006,,,,,,,,
17560712,Otervegen,63.919,11.210,,,3006,,,,,,,,
17560713,Skippervegen,63.917,11.205,,,3006,,,,,,,,
17560714,Sveet,63.915,11.201,,,3006,,,,,,,,
17560715,Kåmyr,63.913,11.198,,,3006,,,,,,,,
17560716,Melakorsen,63.907,11.174,,,3006,,,,,,,,
17560717,Kjelvik,63.904,11.160,,,3006,,,,,,,,
17560718,Trøakorsen,63.908,11.190,,,3006,,,,,,,,
17560720,Folen,63.900,11.145,,,3006,,,,,,,,
17560721,Snerting,63.900,11.143,,,3006,,,,,,,,
17560722,Letnes,63.899,11.128,,,3006,,,,,,,,
17560724,Fjeset,63.886,11.112,,,3006,,,,,,,,
17560725,Stokkan skole,63.879,11.107,,,3006,,,,,,,,
17560726,Norumsaunet,63.874,11.118,,,3006,,,,,,,,
17560731,Skjelvågen,63.962,11.314,,,3006,,,,,,,,
17560733,Langås,63.964,11.305,,,3006,,,,,,,,
17560734,Stornes,63.966,11.290,,,3006,,,,,,,,
17560739,Hustadlandet,63.971,11.348,,,3006,,,,,,,,
17560742,Verstad Lille,63.924,11.267,,,3006,,,,,,,,
17560743,Flatås,63.921,11.274,,,3006,,,,,,,,
17560748,Heimstad,63.939,11.321,,,3006,,,,,,,,
17560754,Hommeldal,63.910,11.307,,,3006,,,,,,,,
17560758,Hallbrua,63.890,11.301,,,3006,,,,,,,,
17560759,Hall,63.887,11.294,,,3006,,,,,,,,
17560761,Rolshavn,63.859,11.329,,,3006,,,,,,,,
17560768,Sund folkehøgskole,63.858,11.312,,,3006,,,,,,,,
17560769,Kvistadbakkan,63.874,11.260,,,3006,,,,,,,,
17560770,Volan,63.874,11.236,,,3006,,,,,,,,
17560771,Hjulstad,63.871,11.223,,,3006,,,,,,,,
17560772,Røvika,63.868,11.212,,,3006,,,,,,,,
17560773,Kvamsskogen,63.864,11.197,,,3006,,,,,,,,
17560774,Utøy,63.864,11.169,,,3006,,,,,,,,
17560776,Ås,63.872,11.147,,,3006,,,,,,,,
17560777,Loa vegdele,63.869,11.160,,,3006,,,,,,,,
17560778,Kjesbu,63.872,11.203,,,3006,,,,,,,,
17560779,Almenningen,63.877,11.186,,,3006,,,,,,,,
17560780,Oksål,63.885,11.184,,,3006,,,,,,,,
17560781,Tronstadkorsen,63.893,11.188,,,3006,,,,,,,,
17560782,Lyngstad,63.894,11.186,,,3006,,,,,,,,
17560784,Ulvin,63.855,11.134,,,3006,,,,,,,,
17560786,Leira,63.850,11.116,,,3006,,,,,,,,
17560787,Næss,63.847,11.107,,,3006,,,,,,,,
17560788,Vang,63.848,11.097,,,3006,,,,,,,,
17560793,Brasethammer,63.839,11.066,,,3006,,,,,,,,
17560794,Brevik,63.832,11.050,,,3006,,,,,,,,
17560796,Mosvik,63.815,11.003,,,3006,,,,,,,,
17560909,Grande,63.822,11.013,,,3006,,,,,,,,
17560910,Mosvik skole,63.818,11.004,,,3006,,,,,,,,
17560911,Melvold,63.824,10.979,,,3006,,,,,,,,
17560969,Nøsthaugen,63.911,11.186,,,3006,,,,,,,,
17560970,Furuneset,63.905,11.165,,,3006,,,,,,,,
17560971,Mekken,63.906,11.192,,,3006,,,,,,,,
17560974,Grindberg,63.867,11.387,,,3006,,,,,,,,
17560975,Bjønnamyra,63.878,11.092,,,3006,,,,,,,,
17560976,Lyngstad skole,63.896,11.185,,,3006,,,,,,,,
17560977,Gran,63.913,11.271,,,3006,,,,,,,,
17560978,Nerenget,63.903,11.266,,,3006,,,,,,,,
17560979,Hastad,63.892,11.261,,,3006,,,,,,,,
17560980,Hoelsdalen,63.928,11.307,,,3006,,,,,,,,
17560981,Bragstad,63.924,11.306,,,3006,,,,,,,,
17560987,Åsadalen,63.932,11.311,,,3006,,,,,,,,
17560989,Bjerkan,63.965,11.303,,,3006,,,,,,,,
17560990,Skogaker,63.965,11.335,,,3006,,,,,,,,
17560991,Hustad,63.959,11.349,,,3006,,,,,,,,
17560992,Perhaugen,63.973,11.359,,,3006,,,,,,,,
17560993,Krokstangen,63.971,11.364,,,3006,,,,,,,,
17560994,Gjørvsjøen,63.947,11.363,,,3006,,,,,,,,
17560995,Tronhusbrekka,63.848,11.147,,,3006,,,,,,,,
17561000,Fossum Auto,63.874,11.288,,,3006,,,,,,,,
17561004,Ivars bil,63.877,11.371,,,3006,,,,,,,,
17561005,Myra,63.876,11.370,,,3006,,,,,,,,
17561006,Campingen,63.873,11.367,,,3006,,,,,,,,
17561008,Straumen,63.872,11.297,,,3006,,,,,,,,
17561009,Vika,63.852,11.319,,,3006,,,,,,,,
17561010,Hø,63.846,11.317,,,3006,,,,,,,,
17561011,Høbakken,63.845,11.328,,,3006,,,,,,,,
17561012,Kverkilberget,63.851,11.360,,,3006,,,,,,,,
17561013,Hellbergkorsen,63.845,11.378,,,3006,,,,,,,,
17561014,Hyllfjæra,63.845,11.392,,,3006,,,,,,,,
17561015,Salberg,63.848,11.401,,,3006,,,,,,,,
17561025,Venna vegdele,63.874,11.290,,,3006,,,,,,,,
17561026,Inderøy vgs.,63.876,11.289,,,3006,,,,,,,,
17561028,Sakshaug skole,63.879,11.286,,,3006,,,,,,,,
17561030,Ingul,63.895,11.304,,,3006,,,,,,,,
17561031,Verdalsmyra,63.905,11.305,,,3006,,,,,,,,
17561032,Sakshaug,63.874,11.275,,,3006,,,,,,,,
17561034,Kvam,63.864,11.178,,,3006,,,,,,,,
17561036,Jørstad,63.861,11.157,,,3006,,,,,,,,
17561040,Stokkanhaugen,63.876,11.107,,,3006,,,,,,,,
17561041,Heggstad,63.945,11.325,,,3006,,,,,,,,
17561042,Hestenget,63.951,11.329,,,3006,,,,,,,,
17561043,Gangstadkorsen,63.958,11.334,,,3006,,,,,,,,
17561044,Nedre Gangstad,63.961,11.335,,,3006,,,,,,,,
17561045,Vådal,63.963,11.334,,,3006,,,,,,,,
17561046,Krokskorsen,63.966,11.372,,,3006,,,,,,,,
17561047,Fjordgløttvegen,63.963,11.309,,,3006,,,,,,,,
17561048,Grønnesby,63.963,11.285,,,3006,,,,,,,,
17561049,Åsvegen,63.962,11.310,,,3006,,,,,,,,
17561050,Hauganvegen,63.964,11.306,,,3006,,,,,,,,
17561051,Norem snuplass,63.881,11.077,,,3006,,,,,,,,
17561052,Ålberg,63.959,11.281,,,3006,,,,,,,,
17561053,Byakorsen,63.900,11.187,,,3006,,,,,,,,
17561054,Brekka,63.874,11.196,,,3006,,,,,,,,
17561055,Rol,63.856,11.320,,,3006,,,,,,,,
17561057,Jektvollen,63.865,11.254,,,3006,,,,,,,,
17561059,Lynghaug,63.892,11.279,,,3006,,,,,,,,
17561215,Plassa,63.940,11.239,,,3006,,,,,,,,
17561216,Vist,63.929,11.231,,,3006,,,,,,,,
17561217,Glømstad,63.927,11.237,,,3006,,,,,,,,
17561218,Malihaugen,63.925,11.250,,,3006,,,,,,,,
17561219,Verstad,63.925,11.259,,,3006,,,,,,,,
17561220,Sneve,63.871,11.207,,,3006,,,,,,,,
17561221,Lursvingen,63.874,11.248,,,3006,,,,,,,,
17561223,Westerhus,63.871,11.148,,,3006,,,,,,,,
17561224,Stavran,63.871,11.137,,,3006,,,,,,,,
17561225,Farbu,63.871,11.134,,,3006,,,,,,,,
17561226,Ørdal,63.873,11.097,,,3006,,,,,,,,
17561227,Dalabakken,63.892,11.114,,,3006,,,,,,,,
17561229,Tronhus,63.848,11.139,,,3006,,,,,,,,
17561230,Forr,63.840,11.123,,,3006,,,,,,,,
17561232,Museet,63.820,10.996,,,3006,,,,,,,,
17561233,Oppgrande,63.819,10.978,,,3006,,,,,,,,
17561234,Vinje,63.817,10.991,,,3006,,,,,,,,
17561249,Mosvang,63.819,11.005,,,3006,,,,,,,,
17561301,Røra,63.859,11.400,,,3006,,,,,,,,
17561303,Svimyra,63.869,11.403,,,3006,,,,,,,,
17561306,Røskje,63.884,11.427,,,3006,,,,,,,,
17561307,Nyjalet,63.867,11.366,,,3006,,,,,,,,
17561308,Flaget,63.851,11.348,,,3006,,,,,,,,
17561309,Hylla,63.841,11.386,,,3006,,,,,,,,
17561310,Grandan,63.880,11.385,,,3006,,,,,,,,
17561311,Loråsmarka,63.868,11.372,,,3006,,,,,,,,
17561312,Røra skole,63.859,11.396,,,3006,,,,,,,,
17561356,Gausa,63.891,11.190,,,3006,,,,,,,,
17561357,Berg,63.901,11.174,,,3006,,,,,,,,
17561441,Korsen,63.951,11.374,,,3006,,,,,,,,
17561707,Hemre,63.954,11.274,,,3006,,,,,,,,
17561708,Vikan,63.939,11.234,,,3006,,,,,,,,
17561709,Agle,63.936,11.235,,,3006,,,,,,,,
17561711,Nedre Vist,63.929,11.226,,,3006,,,,,,,,
17561712,Otervegen,63.919,11.210,,,3006,,,,,,,,
17561713,Skippervegen,63.917,11.205,,,3006,,,,,,,,
17561714,Sveet,63.915,11.201,,,3006,,,,,,,,
17561715,Kåmyr,63.913,11.197,,,3006,,,,,,,,
17561716,Melakorsen,63.907,11.174,,,3006,,,,,,,,
17561717,Kjelvik,63.904,11.160,,,3006,,,,,,,,
17561718,Trøakorsen,63.908,11.190,,,3006,,,,,,,,
17561720,Folen,63.900,11.145,,,3006,,,,,,,,
17561721,Snerting,63.900,11.143,,,3006,,,,,,,,
17561722,Letnes,63.899,11.128,,,3006,,,,,,,,
17561724,Fjeset,63.886,11.112,,,3006,,,,,,,,
17561725,Stokkan skole,63.880,11.107,,,3006,,,,,,,,
17561726,Norumsaunet,63.874,11.118,,,3006,,,,,,,,
17561731,Skjelvågen,63.962,11.314,,,3006,,,,,,,,
17561733,Langås,63.964,11.305,,,3006,,,,,,,,
17561734,Stornes,63.966,11.290,,,3006,,,,,,,,
17561739,Hustadlandet,63.971,11.348,,,3006,,,,,,,,
17561742,Verstad Lille,63.924,11.267,,,3006,,,,,,,,
17561743,Flatås,63.921,11.274,,,3006,,,,,,,,
17561748,Heimstad,63.939,11.321,,,3006,,,,,,,,
17561754,Hommeldal,63.910,11.307,,,3006,,,,,,,,
17561758,Hallbrua,63.890,11.300,,,3006,,,,,,,,
17561759,Hall,63.887,11.294,,,3006,,,,,,,,
17561761,Rolshavn,63.859,11.329,,,3006,,,,,,,,
17561768,Sund folkehøgskole,63.858,11.312,,,3006,,,,,,,,
17561769,Kvistadbakkan,63.874,11.260,,,3006,,,,,,,,
17561770,Volan,63.873,11.236,,,3006,,,,,,,,
17561771,Hjulstad,63.871,11.223,,,3006,,,,,,,,
17561772,Røvika,63.868,11.212,,,3006,,,,,,,,
17561773,Kvamsskogen,63.864,11.197,,,3006,,,,,,,,
17561774,Utøy,63.864,11.169,,,3006,,,,,,,,
17561776,Ås,63.872,11.147,,,3006,,,,,,,,
17561777,Loa vegdele,63.869,11.160,,,3006,,,,,,,,
17561778,Kjesbu,63.872,11.203,,,3006,,,,,,,,
17561779,Almenningen,63.877,11.186,,,3006,,,,,,,,
17561780,Oksål,63.885,11.184,,,3006,,,,,,,,
17561781,Tronstadkorsen,63.893,11.188,,,3006,,,,,,,,
17561782,Lyngstad,63.894,11.186,,,3006,,,,,,,,
17561784,Ulvin,63.855,11.135,,,3006,,,,,,,,
17561786,Leira,63.850,11.116,,,3006,,,,,,,,
17561787,Næss,63.847,11.107,,,3006,,,,,,,,
17561788,Vang,63.848,11.097,,,3006,,,,,,,,
17561793,Brasethammer,63.839,11.066,,,3006,,,,,,,,
17561794,Brevik,63.832,11.050,,,3006,,,,,,,,
17561796,Mosvik,63.816,11.003,,,3006,,,,,,,,
17561909,Grande,63.822,11.013,,,3006,,,,,,,,
17561910,Mosvik skole,63.818,11.005,,,3006,,,,,,,,
17561911,Melvold,63.824,10.979,,,3006,,,,,,,,
17561970,Furuneset,63.905,11.165,,,3006,,,,,,,,
17561971,Mekken,63.906,11.191,,,3006,,,,,,,,
17561972,Grandlandet,63.883,11.402,,,3006,,,,,,,,
17561973,Sjølia,63.871,11.368,,,3006,,,,,,,,
17561974,Grindberg,63.867,11.387,,,3006,,,,,,,,
17561975,Bjønnamyra,63.878,11.092,,,3006,,,,,,,,
17561976,Lyngstad skole,63.896,11.185,,,3006,,,,,,,,
17561977,Gran,63.913,11.271,,,3006,,,,,,,,
17561978,Nerenget,63.903,11.266,,,3006,,,,,,,,
17561979,Hastad,63.892,11.261,,,3006,,,,,,,,
17561980,Hoelsdalen,63.927,11.306,,,3006,,,,,,,,
17561981,Bragstad,63.924,11.306,,,3006,,,,,,,,
17561987,Åsadalen,63.932,11.311,,,3006,,,,,,,,
17561989,Bjerkan,63.966,11.303,,,3006,,,,,,,,
17561990,Skogaker,63.965,11.334,,,3006,,,,,,,,
17561991,Hustad,63.959,11.349,,,3006,,,,,,,,
17561992,Perhaugen,63.973,11.359,,,3006,,,,,,,,
17561993,Krokstangen,63.971,11.364,,,3006,,,,,,,,
17561996,Li,63.883,11.283,,,3006,,,,,,,,
17562000,Fossum Auto,63.874,11.288,,,3006,,,,,,,,
17562028,Akset,63.877,11.285,,,3006,,,,,,,,
17562041,Heggstad,63.946,11.326,,,3006,,,,,,,,
17562046,Krokskorsen,63.966,11.372,,,3006,,,,,,,,
17562772,Røvika,63.868,11.212,,,3006,,,,,,,,